Latitude,Longitude,Elevation,Land Use,Location Setting,Address,Zip Code,State Name,County Name,City Name,fipsID
32.437458,-86.47289099999998,64.0,RESIDENTIAL,SUBURBAN,"KING ARTHUR TRAILER COURT, PRATTVILLE,AL",36067.0,Alabama,Autauga,Prattville,1001.0
32.428470000000004,-86.443585,0.0,AGRICULTURAL,RURAL,COUNTY RD 4 PRATTVILLE EXPERIMENT ST,,Alabama,Autauga,Prattville,1001.0
32.332659,-86.791521,41.0,FOREST,RURAL,"1170 COUNTY RD.15 SO., SELMA, AL. 36701",36003.0,Alabama,Autauga,Not in a City,1001.0
0.0,0.0,0.0,UNKNOWN,RURAL,CHANDLER RESIDENCE FT MORGAN STATE PARK,,Alabama,Baldwin,Not in a city,1003.0
30.552367,-87.70691099999998,0.0,COMMERCIAL,RURAL,COR PENNSYLVANIA & CHICAGO (ROBERTSDALE),36567.0,Alabama,Baldwin,Robertsdale,1003.0
30.555471999999998,-87.713599,49.0,COMMERCIAL,URBAN AND CENTER CITY,"RACINE AND MICHIGAN ST, ROBERTSDALE, AL.",,Alabama,Baldwin,Not in a city,1003.0
30.497478000000005,-87.880258,37.19,COMMERCIAL,SUBURBAN,"FAIRHOPE HIGH SCHOOL, 1 PIRATE DRIVE, FAIRHOPE,  ALABAMA",36532.0,Alabama,Baldwin,Fairhope,1003.0
31.891271999999997,-85.13521,85.0,COMMERCIAL,SUBURBAN,601 EAST BARBOUR US HGWY 82,,Alabama,Barbour,Eufaula,1005.0
31.664302000000006,-85.606175,143.26,FOREST,SUBURBAN,"437 COUNTY ROAD 8, CLIO, ALABAMA",,Alabama,Barbour,Not in a city,1005.0
32.904047999999996,-87.23305699999997,445.0,AGRICULTURAL,RURAL,11.8 KM SW OF CENTREVILLE ON CNTY RD 25.,35034.0,Alabama,Bibb,Centreville (Centerville),1007.0
33.95702,-86.464443,250.0,MOBILE,URBAN AND CENTER CITY,COUNTY HEALTH DEPT 1002 2ND AVE EAST,35121.0,Alabama,Blount,Oneonta,1009.0
33.949542,-86.47304199999998,6.0,COMMERCIAL,URBAN AND CENTER CITY,5TH E & 4TH ST NORTH,,Alabama,Blount,Oneonta,1009.0
33.656771,-85.824409,237.0,COMMERCIAL,URBAN AND CENTER CITY,309 EAST 8TH STREET,,Alabama,Calhoun,Anniston,1015.0
33.685659,-85.837744,247.0,INDUSTRIAL,SUBURBAN,BLUE MTN POST OFFICE,,Alabama,Calhoun,Anniston,1015.0
32.83956,-86.63780899999998,213.0,RESIDENTIAL,SUBURBAN,112 AUGUSTA STREET,35045.0,Alabama,Chilton,Clanton,1021.0
32.83957,-86.62887099999998,171.0,COMMERCIAL,URBAN AND CENTER CITY,1ST AVE & 5TH AVE,,Alabama,Chilton,Clanton,1021.0
32.209311,-88.05196099999998,39.0,INDUSTRIAL,RURAL,P.O. BOX 111,,Alabama,Choctaw,Not in a city,1023.0
32.2057,-88.05362799999996,37.0,INDUSTRIAL,RURAL,P.O. BOX 183,,Alabama,Choctaw,Not in a City,1023.0
31.966669,-87.782035,160.0,AGRICULTURAL,RURAL,CLARKE STREET (GROVE HILL),36784.0,Alabama,Clarke,Not in a City,1025.0
31.694265,-87.77346299999998,152.0,COMMERCIAL,SUBURBAN,GROVE HILL MEMORIAL HOSPITAL HWY 43,36451.0,Alabama,Clarke,Grove Hill,1025.0
33.284928,-85.803608,344.42,RESIDENTIAL,RURAL,ASHLAND AIRPORT,36251.0,Alabama,Clay,Ashland,1027.0
31.056846999999998,-87.259142,0.0,UNKNOWN,UNKNOWN,UNKNOWN,,Alabama,Coffee,Enterprise,1031.0
34.737034,-87.886701,143.0,AGRICULTURAL,RURAL,2.3 MI W OF COLBERT POWER PLANT,,Alabama,Colbert,Not in a city,1033.0
34.781787,-87.64612699999998,152.0,INDUSTRIAL,RURAL,0.7 MI WNW OF OACD,35661.0,Alabama,Colbert,Not in a City,1033.0
34.770676,-87.64612699999998,152.0,INDUSTRIAL,RURAL,0.6 MI N OF OACD,35661.0,Alabama,Colbert,Not in a City,1033.0
34.771231,-87.628348,168.0,INDUSTRIAL,RURAL,1.2 MI NE OF OACD,35661.0,Alabama,Colbert,Muscle Shoals,1033.0
34.762063999999995,-87.64945999999998,158.0,AGRICULTURAL,RURAL,1.1 MI S OF OACD,35661.0,Alabama,Colbert,Not in a City,1033.0
34.764009,-87.661683,168.0,INDUSTRIAL,RURAL,1.3 MI SW OF OACD,35661.0,Alabama,Colbert,Not in a City,1033.0
34.760089,-87.66502899999998,162.0,INDUSTRIAL,RURAL,1.5 MI SW OF OACD,,Alabama,Colbert,Not in a city,1033.0
34.760921999999994,-87.643085,155.0,AGRICULTURAL,RURAL,1.2 MI S OF OACD,,Alabama,Colbert,Not in a city,1033.0
34.783453,-87.651127,152.0,INDUSTRIAL,RURAL,0.4 MI NW OF OACD,35661.0,Alabama,Colbert,Not in a City,1033.0
34.780676,-87.63612599999998,168.0,INDUSTRIAL,RURAL,0.6 MI ENE OF OACD,35661.0,Alabama,Colbert,Not in a City,1033.0
34.782342,-87.62501499999998,168.0,AGRICULTURAL,RURAL,1.2 MI ENE OF OACD,35661.0,Alabama,Colbert,Not in a City,1033.0
34.780120000000004,-87.632515,165.0,AGRICULTURAL,RURAL,0.77 MI ENE OF OACD,35661.0,Alabama,Colbert,Muscle Shoals,1033.0
34.740646000000005,-87.88031199999998,155.0,AGRICULTURAL,RURAL,2.4 MI W OF COLBERT STEAM PLANT,,Alabama,Colbert,Not in a city,1033.0
34.720368,-87.819755,143.0,AGRICULTURAL,RURAL,2.3 MI SE OF COLBERT STEAM PLANT,,Alabama,Colbert,Not in a city,1033.0
34.6604,-87.77696399999998,174.0,AGRICULTURAL,RURAL,0.2 MI WSW OF OACD,35674.0,Alabama,Colbert,Not in a City,1033.0
34.786508000000005,-87.643626,140.0,INDUSTRIAL,RURAL,0.6 MI N OF OACD,35661.0,Alabama,Colbert,Not in a City,1033.0
34.779564,-87.637793,168.0,INDUSTRIAL,RURAL,0.5 MI ENE OF OACD,35661.0,Alabama,Colbert,Not in a City,1033.0
34.761756,-87.639195,155.0,AGRICULTURAL,RURAL,1.1 MI SSE OF OACD,,Alabama,Colbert,Not in a city,1033.0
34.762311,-87.662251,168.0,INDUSTRIAL,RURAL,1.4 MI SW OF OACD,,Alabama,Colbert,Not in a city,1033.0
34.772033,-87.901423,146.0,AGRICULTURAL,RURAL,TVA 3.5 MI WNW OF COLBERT STEAM PLANT,,Alabama,Colbert,Not in a city,1033.0
34.716757,-87.88170099999998,149.0,AGRICULTURAL,RURAL,TVA COLBERT 9    2.6 MI SW COLBERT FOSSI,,Alabama,Colbert,Not in a city,1033.0
34.689813,-87.849756,154.0,AGRICULTURAL,RURAL,3.7 MI S OF COLBERT STEAM PLANT,,Alabama,Colbert,Not in a city,1033.0
34.737342,-87.838077,143.0,COMMERCIAL,RURAL,0.8 MILE S E OF COLBERT STEAM PLANT,35674.0,Alabama,Colbert,Not in a City,1033.0
34.740922999999995,-87.879756,155.0,AGRICULTURAL,RURAL,1.76 MILES W OF COLBERT STEAM PLANT,,Alabama,Colbert,Not in a city,1033.0
34.735368,-87.875312,137.0,AGRICULTURAL,RURAL,"FM PLANT ACCESS RD,GO WEST ON 72, 1.1 MI",,Alabama,Colbert,Not in a city,1033.0
34.7637,-87.652807,158.0,INDUSTRIAL,SUBURBAN,0.98 MI. SSW OF NFDC CHIMNEY,,Alabama,Colbert,Not in a city,1033.0
34.762032999999995,-87.662251,168.0,INDUSTRIAL,SUBURBAN,1.4 MI. SW OF NFDC CHIMNEY,,Alabama,Colbert,Not in a city,1033.0
34.73259,-87.857534,140.0,AGRICULTURAL,RURAL,TVA COLBERT 13   0.9 MI SW COLBERT FP,,Alabama,Colbert,Not in a city,1033.0
34.690647,-87.821422,238.0,AGRICULTURAL,RURAL,TVA COLBERT 14___3.98 MI SE COLBERT FP,,Alabama,Colbert,Not in a City,1033.0
34.737342,-87.838077,14.0,AGRICULTURAL,RURAL,PO BOX 2000 TUSCUMBIA AL 35674,35674.0,Alabama,Colbert,Not in a City,1033.0
34.761676,-87.638685,162.0,INDUSTRIAL,SUBURBAN,WILSON DAM ROAD,35661.0,Alabama,Colbert,Not in a City,1033.0
34.762619,-87.638097,122.0,INDUSTRIAL,SUBURBAN,WILSON DAM RD AND 2ND ST.,35661.0,Alabama,Colbert,Muscle Shoals,1033.0
34.758900000000004,-88.0138,148.0,FOREST,RURAL,Natchez Trace Parkway,35616.0,Alabama,Colbert,Not in a City,1033.0
34.75150900000001,-87.68168399999998,168.0,RESIDENTIAL,SUBURBAN,2. MI WSW OF OACD,35660.0,Alabama,Colbert,Sheffield,1033.0
31.477664,-86.963307,78.0,COMMERCIAL,URBAN AND CENTER CITY,COUNTY HEALTH DEPT,,Alabama,Conecuh,Evergreen,1035.0
31.305727,-86.488569,76.0,RESIDENTIAL,SUBURBAN,300 WEST WATSON ST.,,Alabama,Covington,Andalusia,1039.0
34.180758000000004,-86.84145199999998,244.0,RESIDENTIAL,URBAN AND CENTER CITY,305 N 4TH AVE E,35055.0,Alabama,Cullman,Cullman,1043.0
34.179266,-86.843612,248.0,COMMERCIAL,URBAN AND CENTER CITY,204 2ND AVE NE,,Alabama,Cullman,Cullman,1043.0
34.194821000000005,-86.856391,0.0,COMMERCIAL,URBAN AND CENTER CITY,"CULLMAN FAIRGROUNDS, CULLMAN COUNTY",,Alabama,Cullman,Cullman,1043.0
32.102367,-87.31416,0.0,RESIDENTIAL,SUBURBAN,METHODIST CHILDREN'S HOME,,Alabama,Dallas,Selma,1047.0
32.408193,-87.01776799999998,52.0,COMMERCIAL,URBAN AND CENTER CITY,ALABAMA AVE AT FRANKLIN STREET.,,Alabama,Dallas,Selma,1047.0
34.456508,-85.671628,488.0,AGRICULTURAL,RURAL,29.9 MI S OF WIDOWS CREEK POWER PLANT,35967.0,Alabama,DeKalb,Fort Payne,1049.0
34.419016,-85.714401,460.0,AGRICULTURAL,RURAL,32.17 MI S OF WIDOWS CREEK POWER PLANT,35967.0,Alabama,DeKalb,Fort Payne,1049.0
34.466237,-85.641065,497.0,AGRICULTURAL,RURAL,29.5 MI SSE OF WIDOWS CREEK POWER PLANT,35967.0,Alabama,DeKalb,Fort Payne,1049.0
34.444849,-85.685789,477.0,AGRICULTURAL,RURAL,31.0 MI S OF WIDOWS CREEK POWER PLANT,35967.0,Alabama,DeKalb,Fort Payne,1049.0
34.495115999999996,-85.865264,402.0,AGRICULTURAL,RURAL,27.5 MILES SSW OF WIDOWS CREEK STEAM PPL,35986.0,Alabama,DeKalb,Rainsville,1049.0
34.525372,-85.899937,378.0,AGRICULTURAL,RURAL,25.9 MILES SSW OF WIDOWS CREEK STEAM PPL,35971.0,Alabama,DeKalb,Powell,1049.0
34.495126,-85.865239,402.0,AGRICULTURAL,RURAL,27.5 MI SSW OF WIDOWS CREEK STEAM PLANT,35986.0,Alabama,DeKalb,Rainsville,1049.0
34.525125,-85.899962,378.0,AGRICULTURAL,RURAL,25.9 MI SSW OF WIDOWS CREEK STEAM PLANT,35971.0,Alabama,DeKalb,Powell,1049.0
34.291782999999995,-85.958621,347.0,AGRICULTURAL,RURAL,42.7 MILE S.S W OF WIDOWS CREEK STEAM,35962.0,Alabama,DeKalb,Not in a City,1049.0
34.438067,-85.726677,276.0,COMMERCIAL,URBAN AND CENTER CITY,500 GRAND AVE,35967.0,Alabama,DeKalb,Fort Payne,1049.0
34.456199,-85.707189,274.0,RESIDENTIAL,SUBURBAN,1500 WILLIAMS AVE. N.E.,,Alabama,DeKalb,Fort Payne,1049.0
34.288567,-85.969858,500.0,AGRICULTURAL,RURAL,"13112 HWY.68 , CROSSVILLE AL. 35962",35962.0,Alabama,DeKalb,Crossville,1049.0
34.289001,-85.97006499999998,352.0,AGRICULTURAL,RURAL,"Sand Mountain Alabama Agricultural Experiment Station, Crossville, AL 35962",35962.0,Alabama,DeKalb,Crossville,1049.0
32.498567,-86.13658699999998,53.95,AGRICULTURAL,RURAL,"DEWBERRY TRAIL, ELMORE CO., WETUMPKA,  ALABAMA",36093.0,Alabama,Elmore,Wetumpka,1051.0
32.583465999999994,-85.93245999999998,400.0,RESIDENTIAL,SUBURBAN,"164 MCNEAL ST., TALLASSEE, AL 36078",,Alabama,Elmore,Tallassee,1051.0
32.538364,-86.23234699999998,54.0,COMMERCIAL,URBAN AND CENTER CITY,"206 Queen Ann Road, Wetumpka, Alabama  36092",36092.0,Alabama,Elmore,Wetumpka,1051.0
32.53568,-86.25519299999998,54.0,INDUSTRIAL,URBAN AND CENTER CITY,"3148 Elmore Road, Wetumpka, Alabama 36092",36092.0,Alabama,Elmore,Wetumpka,1051.0
31.108815000000003,-87.07094000000002,37.0,RESIDENTIAL,SUBURBAN,204 SOWELL STREET,36426.0,Alabama,Escambia,Brewton,1053.0
31.106567,-87.07108099999998,50.0,COMMERCIAL,URBAN AND CENTER CITY,BELLVILLE AVE.BREWTON,36426.0,Alabama,Escambia,Brewton,1053.0
31.0921,-87.54350000000002,89.61,AGRICULTURAL,RURAL,Jack Springs Rd,36502.0,Alabama,Escambia,Not in a City,1053.0
33.999818999999995,-86.107475,17.0,RESIDENTIAL,SUBURBAN,ATTALLA COMMUNITY CENTER,,Alabama,Etowah,Attalla,1055.0
34.039066,-85.97140499999998,177.0,RESIDENTIAL,SUBURBAN,FIRE DEPT GOLDENROD AVE,35901.0,Alabama,Etowah,Gadsden,1055.0
34.011208,-86.057473,173.0,INDUSTRIAL,URBAN AND CENTER CITY,WALNUT PARK FIRE STATION,,Alabama,Etowah,Gadsden,1055.0
34.007304999999995,-86.03961,160.0,INDUSTRIAL,URBAN AND CENTER CITY,1800 CHESTNUT STREET,35904.0,Alabama,Etowah,Gadsden,1055.0
33.996487,-86.047195,152.0,RESIDENTIAL,SUBURBAN,SOUTH 11TH ST.AND HALL STREET,,Alabama,Etowah,Gadsden,1055.0
34.015097,-86.012194,0.0,RESIDENTIAL,SUBURBAN,3200 WALNUT ST,,Alabama,Etowah,Gadsden,1055.0
33.991494,-85.99264699999998,50.0,COMMERCIAL,URBAN AND CENTER CITY,"1001 WALLACE DRIVE, GADSDEN, AL 35902",35903.0,Alabama,Etowah,Gadsden,1055.0
33.904039000000004,-86.05386700000003,152.4,AGRICULTURAL,SUBURBAN,"1450 PARKER ANDERSON LANE, SOUTHSIDE, AL 35907",35907.0,Alabama,Etowah,Southside,1055.0
34.015375,-86.012194,172.0,COMMERCIAL,URBAN AND CENTER CITY,109 SOUTH 8TH STREET,,Alabama,Etowah,Gadsden,1055.0
34.511762,-87.718088,234.0,COMMERCIAL,SUBURBAN,NORTH ALABAMA HOSPITAL,,Alabama,Franklin,Russellville,1059.0
31.118821999999998,-86.157749,0.0,AGRICULTURAL,RURAL,"FIRST RT W. OFF COUNTY RD 54, SAMSON, AL",36477.0,Alabama,Geneva,Not in a City,1061.0
31.554308,-85.25370600000002,119.0,COMMERCIAL,RURAL,HENRY CO HOSPITAL US HGWY 431,36310.0,Alabama,Henry,Abbeville,1067.0
31.229088,-85.40411800000003,0.0,,,406 WEST WASHINGTON ST,36303.0,Alabama,Houston,Dothan,1069.0
31.228787,-85.375489,102.0,RESIDENTIAL,SUBURBAN,"EAST HIGHLAND ST., BOARD OF ED. BLDG.",36303.0,Alabama,Houston,Dothan,1069.0
31.224783,-85.390789,264.0,COMMERCIAL,URBAN AND CENTER CITY,126 NORTH ST. ANDREWS STREET (CIVIC CENTER),36303.0,Alabama,Houston,Dothan,1069.0
31.188933,-85.42309399999998,350.0,RESIDENTIAL,SUBURBAN,161 BUFORD LANE,36301.0,Alabama,Houston,Dothan,1069.0
34.948137,-85.714415,207.0,AGRICULTURAL,RURAL,4.8 MI NNE OF WIDOWS CREEK POWER PLANT,,Alabama,Jackson,Bridgeport,1071.0
34.934525,-85.720804,201.0,AGRICULTURAL,RURAL,3.9 MI N OF WCSP- BRG,,Alabama,Jackson,Bridgeport,1071.0
34.828137,-85.682192,421.0,AGRICULTURAL,RURAL,5.6 MI SE OF WIDOWS CREEK POWER PLANT,,Alabama,Jackson,Not in a city,1071.0
34.856747999999996,-85.73525,457.0,AGRICULTURAL,RURAL,2.2 MI SSE OF WIDOWS CREEK POWER PLANT,,Alabama,Jackson,Not in a city,1071.0
34.874248,-85.717749,457.0,AGRICULTURAL,RURAL,2.4 MI ESE OF WIDOWS CREEK POWER PLANT,,Alabama,Jackson,Not in a city,1071.0
34.912302000000004,-85.664136,475.0,AGRICULTURAL,RURAL,5.5 MI ENE OF WIDOWS CREEK POWER PLANT,,Alabama,Jackson,Not in a city,1071.0
34.843451,-85.707734,439.0,AGRICULTURAL,RURAL,3.75 MI SSE OF WIDOWS CREEK POWER PLANT,35966.0,Alabama,Jackson,Not in a City,1071.0
34.842896,-85.716624,433.0,AGRICULTURAL,RURAL,3.48 MI SE OF WIDOWS CREEK POWER PLANT,35966.0,Alabama,Jackson,Not in a City,1071.0
34.840674,-85.755791,460.0,AGRICULTURAL,RURAL,3.05 MI S OF WIDOWS CREEK POWER PLANT,35772.0,Alabama,Jackson,Not in a City,1071.0
34.851507,-85.72967899999998,442.0,AGRICULTURAL,RURAL,2.58 MI SSE OF WIDOWS CREEK POWER PLANT,35966.0,Alabama,Jackson,Not in a City,1071.0
34.825951,-85.736901,469.0,AGRICULTURAL,RURAL,4.11 MI SSE OF WIDOWS CREEK POWER PLANT,35966.0,Alabama,Jackson,Not in a City,1071.0
34.891473999999995,-86.093316,544.0,UNKNOWN,RURAL,HITOP,,Alabama,Jackson,Not in a city,1071.0
34.930116,-85.666899,466.0,AGRICULTURAL,RURAL,5.68 MI NE OF WIDOWS CREEK POWER PLANT,35958.0,Alabama,Jackson,Not in a City,1071.0
34.858729,-85.72245699999998,442.0,AGRICULTURAL,RURAL,2.5 MI SE OF WIDOWS CREEK POWER PLANT,35966.0,Alabama,Jackson,Not in a City,1071.0
34.828174,-85.68217800000002,421.0,AGRICULTURAL,RURAL,5.6 MI SE OF WIDOWS CREEK POWER PLANT,35966.0,Alabama,Jackson,Not in a City,1071.0
34.866229,-85.73440099999998,462.0,AGRICULTURAL,RURAL,1.7 MI SE OF WIDOWS CREEK POWER PLANT,35966.0,Alabama,Jackson,Not in a City,1071.0
34.876506,-85.705789,451.0,AGRICULTURAL,RURAL,2.63 MI ESE OF WIDOWS CREEK POWER PLANT,35966.0,Alabama,Jackson,Not in a City,1071.0
34.866749,-85.783307,198.0,INDUSTRIAL,RURAL,AIRPORT BUILDING (STEVENSON),,Alabama,Jackson,Not in a city,1071.0
34.855637,-85.747473,479.0,AGRICULTURAL,RURAL,2.0 MILES SSE OF WIDOWS CREEK STEAM PLAN,,Alabama,Jackson,Not in a city,1071.0
34.877025,-85.720805,457.0,AGRICULTURAL,RURAL,TVA WIDOWS CRK 11 2.0 MI ESE WIDOWS CRK,,Alabama,Jackson,Not in a city,1071.0
34.867859,-85.721361,457.0,AGRICULTURAL,RURAL,TVA WDCK 9       2.3 MI ESE OF WDCK FP,,Alabama,Jackson,Not in a city,1071.0
34.856747999999996,-85.735528,459.0,AGRICULTURAL,RURAL,2.14 MI. SSE OF WIDOWS CREEK STEAM PLANT,,Alabama,Jackson,Not in a city,1071.0
34.852304,-85.748584,480.0,INDUSTRIAL,RURAL,ROUTE 2 BOX 332A (FLAT ROCK),,Alabama,Jackson,Not in a city,1071.0
34.915637,-85.734972,195.0,AGRICULTURAL,RURAL,2.3 MI NNE OF WIDOWS CREEK STEAM PLANT,,Alabama,Jackson,Not in a city,1071.0
34.874525,-85.74163899999998,192.0,UNKNOWN,RURAL,1 MI SE OF WIDOWS CREEK STEAM PLANT,,Alabama,Jackson,Not in a city,1071.0
34.938969,-85.66108,479.0,AGRICULTURAL,RURAL,TVA WIDOWS CRK_146.6 MI SE WIDOWS CRK FP,,Alabama,Jackson,Not in a city,1071.0
34.959804,-85.77552899999998,463.0,UNKNOWN,RURAL,5.4 MI NNW OF WIDOWS CREEK STEAM PLANT,,Alabama,Jackson,Not in a city,1071.0
34.891473999999995,-86.093316,544.0,UNKNOWN,RURAL,18.9 MI W OF WIDOWS CREEK STEAM PLANT,,Alabama,Jackson,Not in a city,1071.0
34.842582,-85.820531,215.0,AGRICULTURAL,RURAL,4.6 MI SW OF WIDOWS CREEK STEAM PLANT,,Alabama,Jackson,Not in a city,1071.0
34.825359999999996,-85.76775099999998,451.0,AGRICULTURAL,RURAL,4.1 MI S OF WIDOWS CREEK STEAM PLANT,,Alabama,Jackson,Not in a city,1071.0
34.944804,-85.85108699999998,475.0,AGRICULTURAL,RURAL,TVA 6.9 MI NW OF WIDOWS CREEK STEAM PLAN,,Alabama,Jackson,Not in a city,1071.0
34.718694,-85.91581,187.0,AGRICULTURAL,RURAL,.93 MILE N E OF BELLEFONTE NUCLEAR PLANT,,Alabama,Jackson,Not in a city,1071.0
34.859562,-85.723013,445.0,AGRICULTURAL,RURAL,2.4 MILES S E OF WIDOWS CREEK STEAM PLAN,35966.0,Alabama,Jackson,Not in a City,1071.0
34.874284,-85.763014,187.0,INDUSTRIAL,RURAL,0.75 MILE S SW OF WIDOWS CREEK STEAM PLT,35772.0,Alabama,Jackson,Not in a City,1071.0
34.918414,-85.73386099999998,209.0,AGRICULTURAL,RURAL,2.65 MI NNE OF WIDOWS CREEK,,Alabama,Jackson,Not in a city,1071.0
34.872581,-85.74302800000002,195.0,AGRICULTURAL,RURAL,1.01 MI SE OF WIDOWS CREEK,,Alabama,Jackson,Not in a city,1071.0
34.818971000000005,-85.77163999999998,453.0,AGRICULTURAL,RURAL,TVA WIDOWS CRK 25   4.52 MI SSW WDCK,,Alabama,Jackson,Not in a city,1071.0
34.845082,-85.74969499999997,457.0,INDUSTRIAL,RURAL,TVA WIDOWS CRK 270.8 MI NW WID CRK FP,,Alabama,Jackson,Not in a city,1071.0
34.874249,-85.763029,187.0,INDUSTRIAL,RURAL,TVA WIDOWS CRK 26   .83 MI SW WDCK,,Alabama,Jackson,Not in a city,1071.0
34.874284,-85.763014,445.0,AGRICULTURAL,RURAL,STEVENSON AL 35772,35772.0,Alabama,Jackson,Not in a City,1071.0
34.92897,-85.71885999999998,192.0,AGRICULTURAL,RURAL,3.5 MI NNE OF WIDOWS CREEK POWER PLANT,,Alabama,Jackson,Not in a city,1071.0
34.858692,-85.722472,442.0,AGRICULTURAL,RURAL,2.5 MI SE OF WIDOWS CREEK POWER PLANT,,Alabama,Jackson,Not in a city,1071.0
34.668555999999995,-86.034607,203.0,RESIDENTIAL,URBAN AND CENTER CITY,COUNTY HEALTH DEPT 609 S BROAD,35768.0,Alabama,Jackson,Scottsboro,1071.0
34.649125,-85.98598,185.0,RESIDENTIAL,SUBURBAN,CITY WATER WORKS,35769.0,Alabama,Jackson,Scottsboro,1071.0
34.673343,-86.05284499999998,187.0,INDUSTRIAL,SUBURBAN,WCRI US 72 & BREWER ST,35768.0,Alabama,Jackson,Scottsboro,1071.0
34.677028,-86.014146,191.0,COMMERCIAL,RURAL,"DAYS INN, E. WILLOW STREET.",,Alabama,Jackson,Scottsboro,1071.0
33.400665999999994,-86.952771,182.0,COMMERCIAL,URBAN AND CENTER CITY,1800 FIRST AVENUE,,Alabama,Jefferson,Bessemer,1073.0
33.3975,-86.95527799999998,168.0,COMMERCIAL,URBAN AND CENTER CITY,"1500 1ST AVE N., BESSEMER, AL",35020.0,Alabama,Jefferson,Bessemer,1073.0
33.504827,-86.79943399999998,203.0,COMMERCIAL,URBAN AND CENTER CITY,720 SOUTH 20TH STREET,,Alabama,Jefferson,Birmingham,1073.0
0.0,0.0,0.0,UNKNOWN,UNKNOWN,1334 STEINER AVE SW,,Alabama,Jefferson,Birmingham,1073.0
33.54566,-86.549151,183.0,INDUSTRIAL,URBAN AND CENTER CITY,"LEEDS ELEMENTARY SCHOOL, ASHVILLE RD.",,Alabama,Jefferson,Leeds,1073.0
0.0,0.0,0.0,UNKNOWN,UNKNOWN,920 20TH ST N,,Alabama,Jefferson,Birmingham,1073.0
0.0,0.0,0.0,UNKNOWN,UNKNOWN,53RD ST & GEORGIA RD,,Alabama,Jefferson,Birmingham,1073.0
33.539547999999996,-86.53331700000003,204.0,INDUSTRIAL,RURAL,"NEW JER., HAYES INT'L, 1370 BORDEN AVENU",,Alabama,Jefferson,Leeds,1073.0
33.487328000000005,-86.811934,183.0,INDUSTRIAL,URBAN AND CENTER CITY,14TH STREET & 1ST AVENUE NORTH,,Alabama,Jefferson,Birmingham,1073.0
33.537605,-86.759433,195.0,RESIDENTIAL,SUBURBAN,"WOODLAWN, 2ND AVENUE AND 52ND STREET NO.",,Alabama,Jefferson,Birmingham,1073.0
33.490939000000004,-86.853324,174.0,RESIDENTIAL,SUBURBAN,"WEST END, STEINER AVE, 1334 STEINER AVE.",,Alabama,Jefferson,Birmingham,1073.0
33.520661,-86.801934,186.0,COMMERCIAL,URBAN AND CENTER CITY,"DOWNTOWN, POST OFFICE, 415 24TH STREET N",,Alabama,Jefferson,Birmingham,1073.0
33.564314,-86.777767,186.0,RESIDENTIAL,SUBURBAN,INGLENOOK & MAURY,35217.0,Alabama,Jefferson,Birmingham,1073.0
33.54598,-86.76665600000003,185.0,RESIDENTIAL,SUBURBAN,43RD ST & 13TH AVENUE N,35212.0,Alabama,Jefferson,Birmingham,1073.0
33.525148,-86.794434,185.0,COMMERCIAL,URBAN AND CENTER CITY,31ST & 3RD AVENUE N.,35203.0,Alabama,Jefferson,Birmingham,1073.0
33.587646,-86.67943000000002,258.0,RESIDENTIAL,RURAL,05 MI EAST OF HOB HILL ROAD ON HIGHWAY 1,35235.0,Alabama,Jefferson,Birmingham,1073.0
33.533481,-86.794434,178.0,RESIDENTIAL,SUBURBAN,28TH ST & 15TH AVENUE N,35234.0,Alabama,Jefferson,Birmingham,1073.0
33.580703,-86.73332099999998,216.0,RESIDENTIAL,SUBURBAN,8800 12TH AVENUE N ZION CITY,35206.0,Alabama,Jefferson,Birmingham,1073.0
33.529592,-86.849158,183.0,INDUSTRIAL,URBAN AND CENTER CITY,801 FINLEY AVE BY-PASS,35204.0,Alabama,Jefferson,Birmingham,1073.0
33.516815,-86.908604,198.0,INDUSTRIAL,SUBURBAN,2000 PLEASANT HILL ROAD BIRMINGHAM ALA,35224.0,Alabama,Jefferson,Birmingham,1073.0
33.511773,-86.893603,162.0,INDUSTRIAL,SUBURBAN,"ENSLEY, 19TH STREET, 722 19TH ST., ENSLE",,Alabama,Jefferson,Birmingham,1073.0
33.533716,-86.850824,171.0,COMMERCIAL,SUBURBAN,"EAST THOMAS, WERC, 2400 ARKADELPHIA ROAD",,Alabama,Jefferson,Birmingham,1073.0
33.553056,-86.815,177.0,COMMERCIAL,URBAN AND CENTER CITY,"NO. B'HAM,SOU R.R., 3009 28TH ST. NO.",35207.0,Alabama,Jefferson,Birmingham,1073.0
33.514827000000004,-86.808601,183.0,MOBILE,URBAN AND CENTER CITY,"DOWNTOWN, LOVEMAN'S, 1818 SECOND AVE. NO",,Alabama,Jefferson,Birmingham,1073.0
33.545660999999996,-86.78276799999998,177.0,RESIDENTIAL,SUBURBAN,"EAST B'HAM, INTERSTATE, 1333 CAHABA ST.",,Alabama,Jefferson,Birmingham,1073.0
33.565104,-86.77999,183.0,RESIDENTIAL,SUBURBAN,"INGLENOOK, ELEM. SCH., 3937 44TH AVE. NO",,Alabama,Jefferson,Birmingham,1073.0
33.498439000000005,-86.810546,189.0,RESIDENTIAL,URBAN AND CENTER CITY,"UAB, JORDAN PK., 809 11TH STREET SOUTH",,Alabama,Jefferson,Birmingham,1073.0
33.529444,-86.850278,166.0,RESIDENTIAL,SUBURBAN,"EAST THOMAS, FINLEY, 841 FINLEY AVE. BP.",35204.0,Alabama,Jefferson,Birmingham,1073.0
33.513995,-86.85137999999998,207.0,RESIDENTIAL,SUBURBAN,EAST THOMAS BSC 800 EIGHTH AVE WEST,,Alabama,Jefferson,Birmingham,1073.0
33.518995000000004,-86.88915899999998,162.0,INDUSTRIAL,SUBURBAN,"1115 AVENUE F, (ENSLEY), BIRMINGHAM",,Alabama,Jefferson,Birmingham,1073.0
33.503717,-86.80804599999998,183.0,COMMERCIAL,URBAN AND CENTER CITY,"UAB, GUY TATE BLDG., 1400 6TH AVE. SOUTH",,Alabama,Jefferson,Birmingham,1073.0
33.503717,-86.81249,183.0,MOBILE,URBAN AND CENTER CITY,"UAB, LANE TCH. CTR., 409 12TH ST. SOUTH",,Alabama,Jefferson,Birmingham,1073.0
33.515105,-86.80554599999998,185.0,COMMERCIAL,URBAN AND CENTER CITY, 2014 FIRST AVE NORTH,,Alabama,Jefferson,Birmingham,1073.0
33.5275,-86.807778,185.0,RESIDENTIAL,URBAN AND CENTER CITY,"2301 11TH AVE NORTH, BIRMINGHAM, AL.",35203.0,Alabama,Jefferson,Birmingham,1073.0
0.0,0.0,0.0,UNKNOWN,UNKNOWN,1ST AVE & 18TH ST,,Alabama,Jefferson,Bessemer,1073.0
,,177.0,RESIDENTIAL,SUBURBAN,JEFFERSON COUNTY HEALTH DEPT. BIRMINGHAM,,Alabama,Jefferson,Birmingham,1073.0
0.0,0.0,198.0,UNKNOWN,UNKNOWN,UNIV MED & DENTAL BLDG 619 SO 19TH ST,,Alabama,Jefferson,Birmingham,1073.0
0.0,0.0,183.0,UNKNOWN,UNKNOWN,15TH ST & 7TH AVE SOUTH,,Alabama,Jefferson,Birmingham,1073.0
33.485555999999995,-86.915,180.0,RESIDENTIAL,SUBURBAN,"FAIRFIELD, PFD, 5229 COURT B",35064.0,Alabama,Jefferson,Fairfield,1073.0
33.455706,-86.919437,194.0,RESIDENTIAL,SUBURBAN,WOODWARD & 11TH ST,35228.0,Alabama,Jefferson,Midfield,1073.0
33.331111,-87.00361099999998,163.0,RESIDENTIAL,SUBURBAN, ROUTE 8 MCADORY,35111.0,Alabama,Jefferson,Not in a City,1073.0
33.535937,-86.534984,201.0,INDUSTRIAL,RURAL,"NEW JER., CALDWELL FDY., 177 DUNNAVANT R",,Alabama,Jefferson,Leeds,1073.0
33.539167,-86.534444,195.0,INDUSTRIAL,RURAL,"176 DUNNAVANT RD, LEEDS",35094.0,Alabama,Jefferson,Leeds,1073.0
33.451389,-86.96722199999998,164.0,COMMERCIAL,URBAN AND CENTER CITY,3822 WILLIAMSON DRIVE,35023.0,Alabama,Jefferson,Bessemer,1073.0
33.459722,-87.30555600000002,226.0,FOREST,RURAL,1801 BRUCE SHAW ROAD,35006.0,Alabama,Jefferson,Not in a City,1073.0
33.545278,-86.54916700000003,195.0,RESIDENTIAL,SUBURBAN, 201 ASHVILLE ROAD,35094.0,Alabama,Jefferson,Leeds,1073.0
0.0,0.0,0.0,UNKNOWN,UNKNOWN,93 EUCLID AVE,,Alabama,Jefferson,Mountain Brook,1073.0
0.0,0.0,0.0,UNKNOWN,UNKNOWN,3016 OVERTON RD,,Alabama,Jefferson,Mountain Brook,1073.0
33.605702,-86.688875,220.0,RESIDENTIAL,SUBURBAN,940 HUFFMAN RD,35215.0,Alabama,Jefferson,Birmingham,1073.0
33.602325,-86.690545,183.0,RESIDENTIAL,SUBURBAN,942 HUFFMAN ROAD,,Alabama,Jefferson,Center Point,1073.0
33.499722,-86.92416700000003,191.0,RESIDENTIAL,SUBURBAN,1242 JERSEY ST WYLAM AL,35224.0,Alabama,Jefferson,Birmingham,1073.0
33.534825999999995,-86.533873,207.0,INDUSTRIAL,RURAL,"NEW JERUSALEM, ILCO, ROUTE 2, BOX 573",,Alabama,Jefferson,Leeds,1073.0
33.530937,-86.541373,210.0,RESIDENTIAL,RURAL,"NEW JERUSALEM, HOL CHURCH, RT. 2, BOX 54",,Alabama,Jefferson,Leeds,1073.0
33.386389,-86.81666700000002,180.0,COMMERCIAL,SUBURBAN,"3425 TAMASSEE LANE, HOOVER, AL 35226",35226.0,Alabama,Jefferson,Hoover,1073.0
33.521427,-86.844112,183.726,RESIDENTIAL,URBAN AND CENTER CITY,"1110 5th Street West Birmingham, AL 35204",35204.0,Alabama,Jefferson,Birmingham,1073.0
0.0,0.0,0.0,UNKNOWN,UNKNOWN,AVE D AT 64TH ST,,Alabama,Jefferson,Fairfield,1073.0
33.443165,-86.99332700000002,165.0,RESIDENTIAL,SUBURBAN,1318 HUEYTOWN ROAD HUEYTOWN ALA,,Alabama,Jefferson,Hueytown,1073.0
33.544271,-86.541651,183.0,INDUSTRIAL,URBAN AND CENTER CITY,"122 8TH ST. N.,& RAILROAD AVE, LEEDS, AL",,Alabama,Jefferson,Leeds,1073.0
33.462649,-86.81665699999998,203.0,RESIDENTIAL,SUBURBAN,432 CARR AVENUE,35209.0,Alabama,Jefferson,Homewood,1073.0
33.538481,-86.70693100000003,183.0,RESIDENTIAL,SUBURBAN,101 20TH STREET SOUTH,35210.0,Alabama,Jefferson,Irondale,1073.0
33.444593999999995,-86.99444,183.0,RESIDENTIAL,SUBURBAN,1318 HUEYTOWN ROAD,35023.0,Alabama,Jefferson,Hueytown,1073.0
33.704722,-86.669167,204.0,RESIDENTIAL,SUBURBAN,"PINSON, HIGH SCH., BOX 360 HWY 75 NORTH",35126.0,Alabama,Jefferson,Pinson,1073.0
33.801667,-86.94250000000002,212.0,RESIDENTIAL,RURAL,10005 CORNER SCHOOL ROAD,35180.0,Alabama,Jefferson,Not in a City,1073.0
33.55724,-86.819499,0.0,COMMERCIAL,URBAN AND CENTER CITY,2620 35th Ave N,35207.0,Alabama,Jefferson,Birmingham,1073.0
33.5448,-86.82390000000002,0.0,COMMERCIAL,URBAN AND CENTER CITY,2015 26thSt,35234.0,Alabama,Jefferson,Birmingham,1073.0
33.568400000000004,-86.80290000000002,0.0,COMMERCIAL,URBAN AND CENTER CITY,3177 44th Ct N,35207.0,Alabama,Jefferson,Birmingham,1073.0
33.5784,-86.7718,0.0,COMMERCIAL,URBAN AND CENTER CITY,1269 Portland Street,35217.0,Alabama,Jefferson,Tarrant (corporate name for Tarrant City),1073.0
33.556633000000005,-86.805464,193.0,RESIDENTIAL,URBAN AND CENTER CITY,"3300 Shuttlesworth Dr., Birmingham, AL 35207",35207.0,Alabama,Jefferson,Birmingham,1073.0
0.0,0.0,0.0,UNKNOWN,UNKNOWN,2000 1ST AVE,,Alabama,Jefferson,Irondale,1073.0
33.578333,-86.773889,173.0,RESIDENTIAL,SUBURBAN,"TARRANT, ELEM. SCH., 1269 PORTLAND STREE",35217.0,Alabama,Jefferson,Tarrant (corporate name for Tarrant City),1073.0
33.585556,-86.779444,169.0,INDUSTRIAL,URBAN AND CENTER CITY,44-SWEET AVENUE,35217.0,Alabama,Jefferson,Tarrant (corporate name for Tarrant City),1073.0
33.565278,-86.79638899999998,179.0,RESIDENTIAL,URBAN AND CENTER CITY,4113 SHUTTLESWORTH DRIVE,35207.0,Alabama,Jefferson,Birmingham,1073.0
33.437052,-86.899714,177.0,INDUSTRIAL,SUBURBAN,"WENONAH, RUBY HILL, 507 WHITMORE DRIVE",,Alabama,Jefferson,Not in a city,1073.0
33.467884000000005,-86.740544,274.0,RESIDENTIAL,SUBURBAN,"MTN.BROOK, FIRE STA.NO.2, 3016 OVERTON R",,Alabama,Jefferson,Mountain Brook,1073.0
33.584314,-86.768322,183.0,INDUSTRIAL,URBAN AND CENTER CITY,1818 PINSON STREET,35217.0,Alabama,Jefferson,Tarrant (corporate name for Tarrant City),1073.0
34.797061,-87.683635,0.0,COMMERCIAL,URBAN AND CENTER CITY,200 WEST TENNESSEE ST,35630.0,Alabama,Lauderdale,Florence,1077.0
34.831506999999995,-87.68084999999998,169.0,RESIDENTIAL,SUBURBAN,4.3 MI. NNW OF TVA NAT FERT DEVELOP CTR,35630.0,Alabama,Lauderdale,Florence,1077.0
34.796242,-87.683301,170.0,COMMERCIAL,URBAN AND CENTER CITY,BURRELL SLATER VOCATIONAL SCHOOL,35630.0,Alabama,Lauderdale,Florence,1077.0
34.794255,-87.682807,154.0,COMMERCIAL,SUBURBAN,205 MARENGO ST.,,Alabama,Lauderdale,Florence,1077.0
34.792866,-87.67919599999998,143.0,COMMERCIAL,SUBURBAN,"541 RIVERVIEW DR.  FLORENCE,AL.35630",,Alabama,Lauderdale,Florence,1077.0
34.786755,-87.78253099999998,177.0,AGRICULTURAL,RURAL,4.8 MI NE OF COLBERT STEAM PLANT,,Alabama,Lauderdale,Not in a city,1077.0
34.793422,-87.84920000000002,158.0,AGRICULTURAL,RURAL,3.4 MI N OF COLBERT STEAM PLANT,,Alabama,Lauderdale,Not in a city,1077.0
34.770367,-87.83586600000002,152.0,AGRICULTURAL,RURAL,TVA COLBERT 1   _1.8 MI NNE COLBERT FP,,Alabama,Lauderdale,Not in a city,1077.0
34.810087,-87.63752799999996,168.0,AGRICULTURAL,RURAL,2.4 MI NNE OF OACD,,Alabama,Lauderdale,Not in a city,1077.0
34.808143,-87.62975,177.0,INDUSTRIAL,RURAL,2.3 MI NNE OF OACD,,Alabama,Lauderdale,Not in a city,1077.0
34.759533000000005,-87.774475,162.0,UNKNOWN,UNKNOWN,4.4 MI ENE OF COLBERT STEAM PLANT,,Alabama,Lauderdale,Not in a city,1077.0
34.479262,-87.291687,193.0,RESIDENTIAL,URBAN AND CENTER CITY,"MOULTON HIGH SCHOOL,COLLEGE STREET",,Alabama,Lawrence,Not in a city,1079.0
34.342904,-87.33973,301.0,FOREST,RURAL,"US FOREST SERVICE RANGER STA., (SIPSEY) H'WY 33.",35650.0,Alabama,Lawrence,Moulton,1079.0
34.589571,-87.109445,277.0,AGRICULTURAL,RURAL,"2799 COUNTY RD. 358 TRINITY, AL. 35673",35673.0,Alabama,Lawrence,Moulton,1079.0
34.343429,-87.33880599999998,286.0,FOREST,RURAL,Sipsy Wilderness,35650.0,Alabama,Lawrence,Not in a City,1079.0
32.643467,-85.403003,233.0,COMMERCIAL,SUBURBAN,PEPPERELL PARKWAY,,Alabama,Lee,Opelika,1081.0
34.828977,-86.975285,217.0,COMMERCIAL,URBAN AND CENTER CITY,LIMESTONE COUNTY HEALTH DEPT.,,Alabama,Limestone,Athens,1083.0
34.796199,-86.970563,206.0,COMMERCIAL,URBAN AND CENTER CITY,SOUTH JEFFERSON ST.,,Alabama,Limestone,Athens,1083.0
34.803421,-86.965007,207.0,COMMERCIAL,URBAN AND CENTER CITY,HOBBS STREET,,Alabama,Limestone,Athens,1083.0
34.685702,-86.88081,0.0,AGRICULTURAL,RURAL,9494 EXPERIMENTAL LOOP,,Alabama,Limestone,Not in a city,1083.0
34.645848,-86.947311,3.0,COMMERCIAL,SUBURBAN,"US 31, Local On Calhoun Community College",35671.0,Alabama,Limestone,Athens,1083.0
34.685922999999995,-87.07084499999998,179.0,UNKNOWN,RURAL,PICNIC AREA-TVA,,Alabama,Limestone,Not in a city,1083.0
34.730677,-86.58276099999998,184.0,COMMERCIAL,URBAN AND CENTER CITY,ROOF OF HEALTH BLDG 304 EUSTIS AVENUE,35801.0,Alabama,Madison,Huntsville,1089.0
34.788423,-86.61610499999998,183.0,RESIDENTIAL,SUBURBAN,5006 PULASKI PIKE,,Alabama,Madison,Huntsville,1089.0
34.728831,-86.585003,184.0,COMMERCIAL,URBAN AND CENTER CITY,MADISON STREET,,Alabama,Madison,Huntsville,1089.0
34.620369000000004,-86.56638099999998,187.0,AGRICULTURAL,RURAL,11525 SO PARKWAY,,Alabama,Madison,Huntsville,1089.0
34.74512,-86.58165,191.0,RESIDENTIAL,URBAN AND CENTER CITY,1201 DALLAS AVENUE ALA,35801.0,Alabama,Madison,Huntsville,1089.0
34.645925,-86.77166700000002,197.0,COMMERCIAL,SUBURBAN,NOAA STATION (JETPORT),,Alabama,Madison,Huntsville,1089.0
34.6554,-86.538871,191.0,RESIDENTIAL,SUBURBAN,1201 BRIAR HOLLOW TRAIL,35802.0,Alabama,Madison,Huntsville,1089.0
34.778423,-86.582493,221.0,RESIDENTIAL,SUBURBAN,4012 NO. PARKWAY,,Alabama,Madison,Huntsville,1089.0
34.717621,-86.639707,194.0,RESIDENTIAL,SUBURBAN,"UAH, CES, RESEARCH INST. ANNEX D",35805.0,Alabama,Madison,Huntsville,1089.0
34.754842,-86.63387399999998,218.0,RESIDENTIAL,SUBURBAN,HIGHLANDS ELEM SCHOOL 2500 BARNEY AVE N,35810.0,Alabama,Madison,Huntsville,1089.0
34.704258,-86.606937,180.0,RESIDENTIAL,SUBURBAN,HUNTSVILLE VOCATIONAL SCH 2800 DRAKE AVE,,Alabama,Madison,Huntsville,1089.0
34.721232,-86.579427,195.0,COMMERCIAL,URBAN AND CENTER CITY,101 SIVLEY ROAD,35801.0,Alabama,Madison,Huntsville,1089.0
34.721509999999995,-86.593594,183.0,MOBILE,URBAN AND CENTER CITY,DUNNAVANT'S MALL,35801.0,Alabama,Madison,Huntsville,1089.0
34.687761,-86.586362,183.0,COMMERCIAL,URBAN AND CENTER CITY,2201 AIRPORT ROAD,,Alabama,Madison,Huntsville,1089.0
34.757313,-86.633883,189.0,RESIDENTIAL,SUBURBAN,"4800 SPARKMAN DRIVE N.W. HUNTSVILLE,ALA.",,Alabama,Madison,Huntsville,1089.0
34.729288000000004,-86.58831599999998,189.0,COMMERCIAL,URBAN AND CENTER CITY,CHURCH ST.,35801.0,Alabama,Madison,Huntsville,1089.0
0.0,0.0,210.0,INDUSTRIAL,SUBURBAN,305 WYNN DR.HUNTSVILLE ALA,,Alabama,Madison,Huntsville,1089.0
34.902865999999996,-86.569716,0.0,AGRICULTURAL,SUBURBAN,321 WALKER LANE,,Alabama,Madison,Huntsville,1089.0
34.772727,-86.756174,227.99,AGRICULTURAL,RURAL,1130 Capshaw Road,35757.0,Alabama,Madison,Huntsville,1089.0
32.509288999999995,-87.843898,38.0,COMMERCIAL,URBAN AND CENTER CITY,FIRE DEPT,36732.0,Alabama,Marengo,Demopolis,1091.0
32.516628000000004,-87.83366,41.0,COMMERCIAL,SUBURBAN,S CEDAR STREET,36732.0,Alabama,Marengo,Demopolis,1091.0
32.503747,-87.834735,46.0,COMMERCIAL,SUBURBAN,"300 E. PETTUS, DEMOPOLIS,AL.36732",,Alabama,Marengo,Demopolis,1091.0
34.336759,-86.311926,183.0,INDUSTRIAL,URBAN AND CENTER CITY,GUNTER AVE,,Alabama,Marshall,Guntersville,1095.0
30.400197,-88.251423,5.0,,,CITY HALL,36509.0,Alabama,Mobile,Bayou La Batre,1097.0
30.76652,-88.075727,13.0,RESIDENTIAL,URBAN AND CENTER CITY,"HWY.43  CHICKASAW, MOBILE COUNTY",36611.0,Alabama,Mobile,Chickasaw,1097.0
30.770181,-88.087761,10.67,COMMERCIAL,SUBURBAN,"Iroquois and Azalea, CHICKASAW, MOBILE CO.,  ALABAMA",36611.0,Alabama,Mobile,Chickasaw,1097.0
30.6835,-88.03918,12.0,,,POLICE BLDG,36603.0,Alabama,Mobile,Mobile,1097.0
30.668583,-88.219026,14.0,COMMERCIAL,URBAN AND CENTER CITY,"101 S. SCHILLINGER RD, MOBILE, AL.",36695.0,Alabama,Mobile,Mobile,1097.0
30.712056,-88.045073,13.0,INDUSTRIAL,URBAN AND CENTER CITY,STATE DOCKS ADMINISTRATION BLDG,36610.0,Alabama,Mobile,Mobile,1097.0
30.676254999999998,-88.16974599999998,52.0,RESIDENTIAL,SUBURBAN,G BULLARD AND AIRPORT BLVD,36608.0,Alabama,Mobile,Mobile,1097.0
30.720245,-88.058948,5.0,INDUSTRIAL,URBAN AND CENTER CITY,WKRG TRANSMITTING SITE TELEGRAPH ROAD,36610.0,Alabama,Mobile,Mobile,1097.0
30.635858,-88.06157499999998,8.0,RESIDENTIAL,SUBURBAN,BROOKLEY CAFETERIA BAY FRONT ROAD,36615.0,Alabama,Mobile,Mobile,1097.0
30.678907,-88.12489000000002,15.0,COMMERCIAL,SUBURBAN,JC PENNY DEPT STORE SPRINGDALE PLAZA,36606.0,Alabama,Mobile,Mobile,1097.0
30.68454,-88.044568,5.0,RESIDENTIAL,URBAN AND CENTER CITY,LITTLE SNIFFER CANAL & LAWRENCE STS,36602.0,Alabama,Mobile,Mobile,1097.0
30.466859000000003,-88.350031,0.0,,,WATER WORKS RD & BAYOU LA BATRE GRAND BA,36541.0,Alabama,Mobile,Grand Bay,1097.0
30.932007,-88.014279,12.0,AGRICULTURAL,RURAL,AXIS DEAD LK RD MIM'S RESIDENCE,36505.0,Alabama,Mobile,Not in a City,1097.0
30.689466999999997,-88.113946,30.0,COMMERCIAL,SUBURBAN,LITTLE SNIFFER SAMPLING TRAJ,36607.0,Alabama,Mobile,Mobile,1097.0
30.699406,-88.047234,11.0,COMMERCIAL,SUBURBAN,"250 ST. JOSEPH ;MOBILE, AL. 36601",36603.0,Alabama,Mobile,Mobile,1097.0
30.720515,-88.05895100000002,6.0,INDUSTRIAL,URBAN AND CENTER CITY,"WKRG XMITTING STN, TELEGRAPH RD.",36610.0,Alabama,Mobile,Mobile,1097.0
0.0,0.0,0.0,UNKNOWN,UNKNOWN,INTERSTATE SURVEILLANCE PROJECT MOBILE,,Alabama,Mobile,Not in a city,1097.0
30.716913,-88.058128,7.0,INDUSTRIAL,SUBURBAN,WKRG RADIO STA OLD TELEGRAPH RD (MOBILE),36610.0,Alabama,Mobile,Mobile,1097.0
30.543557,-88.17649200000002,18.0,COMMERCIAL,SUBURBAN,THEODORE GAS CO HWY 90,36582.0,Alabama,Mobile,Theodore,1097.0
30.959867,-88.028184,13.0,INDUSTRIAL,RURAL,SALCO-CAIN'S SERVICE STATION,36505.0,Alabama,Mobile,Not in a City,1097.0
30.541055,-88.12364199999998,8.0,INDUSTRIAL,RURAL,THEODORE INDUSTRIAL PARK BIG SNIFFER,36582.0,Alabama,Mobile,Not in a City,1097.0
30.499639,-88.14611099999998,15.0,INDUSTRIAL,RURAL,"PHILLIP'S RESIDENCE, LAURENDINE ROAD",,Alabama,Mobile,Not in a city,1097.0
30.958515,-88.02833199999998,12.0,INDUSTRIAL,SUBURBAN,"U.S. H'WAY 43, 5.5 MILES N OF I-65, AXIS",,Alabama,Mobile,Mobile,1097.0
30.658496999999997,-88.036665,15.0,COMMERCIAL,URBAN AND CENTER CITY,"(CC WILLIAMS) 1600 YEEND ST., MOBILE , AL.",,Alabama,Mobile,Mobile,1097.0
30.698836,-88.181974,15.0,COMMERCIAL,URBAN AND CENTER CITY,"USA NORTH, MOBILE , AL.",36688.0,Alabama,Mobile,Mobile,1097.0
30.761331,-88.083361,12.0,,,66 W GRANT ST,36611.0,Alabama,Mobile,Chickasaw,1097.0
30.705746,-88.06527700000002,15.0,RESIDENTIAL,URBAN AND CENTER CITY,"248 COX STREET, MOBILE , AL.",,Alabama,Mobile,Mobile,1097.0
30.705777,-88.06530500000002,5.0,,,BOARD OF HEALTH BLDG,36603.0,Alabama,Mobile,Mobile,1097.0
30.683555,-88.241699,0.0,,,AIRPORT BLVD BATES FIELD,36608.0,Alabama,Mobile,Not in a City,1097.0
30.702721999999998,-88.095861,0.0,,,OLD SHELL RD & FOREST HILL RD MOBILE,36617.0,Alabama,Mobile,Mobile,1097.0
30.733277,-88.050027,0.0,,,EARL ST CHURCH MAGAZINE POINT,36610.0,Alabama,Mobile,Mobile,1097.0
31.38489,-88.125562,0.0,UNKNOWN,UNKNOWN,AMMUNITATION DUMP THEODORE,,Alabama,Mobile,Not in a city,1097.0
30.550226,-88.08475,0.0,,,HAMILTON BLVD HOLLINGERS ISLAND,36605.0,Alabama,Mobile,Not in a City,1097.0
30.483560999999998,-88.11669599999998,0.0,,,TATUMS SERVICE STATION BAYLEYS CORNER,36582.0,Alabama,Mobile,Not in a City,1097.0
30.508283,-88.23336499999998,0.0,,,LAUNDROMAT IRVINGTON,36544.0,Alabama,Mobile,Not in a City,1097.0
30.75022,-88.086139,0.0,,,COMMUNITY HOUSE WHISTLER,36610.0,Alabama,Mobile,Prichard,1097.0
30.668278000000004,-88.062527,0.0,,,BALTIMORE PARK OAKDALE,36605.0,Alabama,Mobile,Mobile,1097.0
30.75022,-88.168086,0.0,,,COLONIAL OAKS CIRCLE N FOREST HILLS,36613.0,Alabama,Mobile,Prichard,1097.0
30.689634,-88.051666,3.0,COMMERCIAL,URBAN AND CENTER CITY,665 DAUPHIN ST  MOBILE ALA.,,Alabama,Mobile,Mobile,1097.0
30.60578,-88.061138,0.0,,,RADAR STATION BAY FRONT RD MOBILE,36605.0,Alabama,Mobile,Mobile,1097.0
30.7,-88.0244,0.0,UNKNOWN,UNKNOWN,SPUR OIL BLAKELY ISLAND,,Alabama,Mobile,Not in a city,1097.0
30.474304999999998,-88.14102199999998,19.81,AGRICULTURAL,RURAL,"BAY RD. ,MOBILE AL.",36582.0,Alabama,Mobile,Theodore,1097.0
31.116877,-88.23336499999998,0.0,,,CITY HALL CITRONELLE,36522.0,Alabama,Mobile,Citronelle,1097.0
30.75022,-88.07502699999998,8.0,,,360 PETAIN ST,36610.0,Alabama,Mobile,Prichard,1097.0
30.722405,-88.048423,14.0,COMMERCIAL,URBAN AND CENTER CITY,802 SOUTH WILSON,36610.0,Alabama,Mobile,Mobile,1097.0
30.7703,-88.0875,11.0,RESIDENTIAL,SUBURBAN,CHICKASAW ARMORY,,Alabama,Mobile,Mobile,1097.0
30.7089,-88.0519,4.0,RESIDENTIAL,SUBURBAN,650 ANTHONY ST,,Alabama,Mobile,Mobile,1097.0
30.9383,-88.025,8.0,RESIDENTIAL,RURAL,STATE HIGHWAY 43,,Alabama,Mobile,Mobile,1097.0
30.6156,-88.34440000000002,39.0,RESIDENTIAL,RURAL,NEWMAN ROAD,,Alabama,Mobile,Mobile,1097.0
30.576400000000003,-88.14030000000002,7.0,COMMERCIAL,SUBURBAN,5525 COMMERCE LANE,,Alabama,Mobile,Mobile,1097.0
30.730777000000003,-88.083361,12.0,,,DISMUKES PARK,36610.0,Alabama,Mobile,Prichard,1097.0
30.827765000000007,-88.07382199999998,9.0,RESIDENTIAL,SUBURBAN,HARTLEY RD,36571.0,Alabama,Mobile,Saraland,1097.0
30.937508,-88.02370499999998,11.0,RESIDENTIAL,SUBURBAN,"U.S. H'WAY 43, 4.5 MILES N OF I-65, AXIS",36505.0,Alabama,Mobile,Mobile,1097.0
30.47415,-88.14102,4.0,RESIDENTIAL,RURAL,4425 BAY ROAD,,Alabama,Mobile,Theodore,1097.0
31.487663,-87.327207,107.0,COMMERCIAL,SUBURBAN,HIGHWAY 21,,Alabama,Monroe,Monroeville,1099.0
32.365694999999995,-86.31580199999998,73.0,COMMERCIAL,URBAN AND CENTER CITY,COUNTY HLTH CTR 515 W JEFF DAVIS AVE,,Alabama,Montgomery,Montgomery,1101.0
32.379897,-86.300963,71.0,COMMERCIAL,URBAN AND CENTER CITY,ENVIRONMENTAL HEALTH LAB 602 MADISON AVE,36104.0,Alabama,Montgomery,Montgomery,1101.0
32.406833,-86.29275899999998,0.0,INDUSTRIAL,URBAN AND CENTER CITY,FIRE DEPT #5 N COURT ST,36110.0,Alabama,Montgomery,Montgomery,1101.0
32.324335999999995,-86.2522,0.0,MOBILE,SUBURBAN,JOHN PATTERSON INDUSTRIAL SCHOOL,36116.0,Alabama,Montgomery,Montgomery,1101.0
32.42597,-86.285247,67.0,COMMERCIAL,SUBURBAN,MTG. RESURRECTION 2815 FORBES DRIVE,36110.0,Alabama,Montgomery,Montgomery,1101.0
32.396249,-86.29524699999996,50.0,INDUSTRIAL,SUBURBAN,1765 N. DECATUR ST.,,Alabama,Montgomery,Montgomery,1101.0
32.369027,-86.304413,67.0,COMMERCIAL,URBAN AND CENTER CITY,645 SO. MCDONOUGH ST.,,Alabama,Montgomery,Montgomery,1101.0
31.971818,-86.134681,433.0,AGRICULTURAL,RURAL,"P.O. BOX 114, GRADY ALA. 36036",,Alabama,Montgomery,Not in a city,1101.0
32.412811,-86.26339399999998,76.2,COMMERCIAL,SUBURBAN,"1350 COLISEUM BLVD, MONTGOMERY, ALABAMA",36109.0,Alabama,Montgomery,Montgomery,1101.0
34.609536,-86.98723100000002,178.0,RESIDENTIAL,URBAN AND CENTER CITY,COR OF 4TH AVE & FRAZER ST,,Alabama,Morgan,Decatur,1103.0
34.582902000000004,-86.98777299999998,173.0,COMMERCIAL,URBAN AND CENTER CITY,1802 FIRST AVENUE SW,35601.0,Alabama,Morgan,Decatur,1103.0
34.623425,-87.02667699999998,162.0,INDUSTRIAL,SUBURBAN,HIGHWAY 20 WEST,,Alabama,Morgan,Decatur,1103.0
34.623456,-87.026664,181.0,RESIDENTIAL,URBAN AND CENTER CITY,BETWEEN 13TH ST. SE & PENNYLANE SE,35601.0,Alabama,Morgan,Not in a City,1103.0
34.623456,-87.001665,171.0,INDUSTRIAL,SUBURBAN,ALA HWY DEPT HWY 20 WEST,,Alabama,Morgan,Decatur,1103.0
34.602592,-86.963897,163.0,INDUSTRIAL,SUBURBAN,RIVERVIEW AVENUE S.E.,,Alabama,Morgan,Decatur,1103.0
34.619814,-86.997509,174.0,COMMERCIAL,SUBURBAN,"841 WILSON ST, NW, DECATUR, AL  35601.",,Alabama,Morgan,Decatur,1103.0
34.605925,-86.98195199999998,189.0,COMMERCIAL,URBAN AND CENTER CITY,510 CHERRY ST. N.W.,,Alabama,Morgan,Decatur,1103.0
34.630956,-87.052775,183.0,INDUSTRIAL,RURAL,RT 1 BOX 93-B FINLEY ISLAND ROAD,35601.0,Alabama,Morgan,Decatur,1103.0
34.630956,-87.052775,183.0,COMMERCIAL,URBAN AND CENTER CITY,1402 POINT MALLARD PKWY. SE,35601.0,Alabama,Morgan,Decatur,1103.0
34.530716999999996,-86.967536,173.74,COMMERCIAL,URBAN AND CENTER CITY,"P.O. BOX 2224 WALLACE DEVELOPMENT CENTER. DECATUR, ALABAMA",35603.0,Alabama,Morgan,Decatur,1103.0
34.433428,-86.940007,220.0,RESIDENTIAL,URBAN AND CENTER CITY,FROST STREET SW,,Alabama,Morgan,Hartselle,1103.0
34.585648,-87.078623,198.0,AGRICULTURAL,RURAL,WOODALL ROAD,,Alabama,Morgan,Not in a city,1103.0
31.807963,-85.993586,0.0,INDUSTRIAL,SUBURBAN,TEXACO STA NEXT TO HOLLIDAY INN,36081.0,Alabama,Pike,Troy,1109.0
31.79792,-85.957516,158.0,INDUSTRIAL,SUBURBAN,503 COLLEGEDALE AVE,36081.0,Alabama,Pike,Troy,1109.0
31.790478999999998,-85.978974,161.0,INDUSTRIAL,SUBURBAN,HENDERSON ROAD,36081.0,Alabama,Pike,Troy,1109.0
31.792969,-85.980522,155.0,FOREST,SUBURBAN,"118 ANDERSON ROAD, TROY, ALA.",36081.0,Alabama,Pike,Troy,1109.0
32.472136,-85.005028,73.7616,COMMERCIAL,URBAN AND CENTER CITY,"1319, 9th Avenue, Phenix City, AL 36837",36867.0,Alabama,Russell,Phenix City,1113.0
32.46735,-85.08344699999998,140.21,RESIDENTIAL,SUBURBAN,"9 WOODLAND DRIVE (SCHOOL) LADONIA,  AL 36869",36869.0,Alabama,Russell,Ladonia,1113.0
32.437028000000005,-84.99965300000002,25.0,COMMERCIAL,SUBURBAN,"510 6th Place South, Phenix City, Alabama  36869",36867.0,Alabama,Russell,Phenix City,1113.0
33.588514,-86.28564899999998,176.0,COMMERCIAL,URBAN AND CENTER CITY,COUNTY HEALTH DEPT 205 19TH STREET NORTH,35125.0,Alabama,St. Clair,Pell City,1115.0
33.173995999999995,-86.587755,178.0,RESIDENTIAL,SUBURBAN,MILDRED ST CO HEALTH DEPT,35051.0,Alabama,Shelby,Columbiana,1117.0
33.109008,-86.753597,165.0,COMMERCIAL,URBAN AND CENTER CITY,"152ND ARMORY BLDG, 8TH AVE AT 13TH ST",35040.0,Alabama,Shelby,Not in a City,1117.0
33.317142,-86.82575399999998,134.11,AGRICULTURAL,RURAL,"HELENA, BEARDEN FARM",35080.0,Alabama,Shelby,Helena,1117.0
33.285946,-86.818045,0.0,AGRICULTURAL,RURAL,"RT 3, P.O. BOX 5643, PELHAM, AL",,Alabama,Shelby,Pelham,1117.0
33.312927,-86.82110399999998,900.0,COMMERCIAL,SUBURBAN,PELHAM HIGH SCHOOL,35124.0,Alabama,Shelby,Pelham,1117.0
33.092800000000004,-86.80720000000002,1.0,INDUSTRIAL,RURAL,7444 State Hwy 25,35040.0,Alabama,Shelby,Calera,1117.0
32.357676,-88.199198,60.0,COMMERCIAL,RURAL,WYLS US HWY #11,36922.0,Alabama,Sumter,Not in a City,1119.0
32.36401,-88.201865,96.32,FOREST,RURAL,"SUMTER CO.,KINTERBISH STATE WILDLIFE MGT. AREA, GASTON, ALABAMA",36922.0,Alabama,Sumter,Not in a City,1119.0
32.362606,-88.277992,63.7032,AGRICULTURAL,RURAL,"NNE of Ward Post Office, Sumter Co., Alabama",36907.0,Alabama,Sumter,Not in a City,1119.0
33.25817,-86.343588,153.0,COMMERCIAL,SUBURBAN,NUNNELLY STATE TECHNICAL SCHOOL,,Alabama,Talladega,Childersburg,1121.0
33.27947,-86.34943799999998,142.0,RESIDENTIAL,SUBURBAN,300 1ST ST. SOUTHEAST,35044.0,Alabama,Talladega,Childersburg,1121.0
33.498434,-86.12263899999998,182.88,INDUSTRIAL,SUBURBAN,"200 HOMER DRIVE (NEW SOUTH EXPRESS WAREHOUSE), TALLADEGA, AL",35160.0,Alabama,Talladega,Talladega,1121.0
33.163154,-86.25414599999998,164.0,COMMERCIAL,URBAN AND CENTER CITY,COUNTY HEALTH DEPT 109 S ANNISTON AVE,35150.0,Alabama,Talladega,Sylacauga,1121.0
33.436775,-86.100527,152.0,COMMERCIAL,URBAN AND CENTER CITY,COOSA AND N. EAST ST.,,Alabama,Talladega,Talladega,1121.0
33.426761,-86.10884899999998,163.0,COMMERCIAL,URBAN AND CENTER CITY,WEST SOUTH STREET,35160.0,Alabama,Talladega,Talladega,1121.0
32.930124,-85.941075,211.0,RESIDENTIAL,SUBURBAN,ALEX CITY JR COLLEGE,,Alabama,Tallapoosa,Alexander City,1123.0
33.207100000000004,-87.547793,0.0,RESIDENTIAL,SUBURBAN,CO HEALTH DEPT 3025 GREEN GROVE LN,35401.0,Alabama,Tuscaloosa,Tuscaloosa,1125.0
33.192049,-87.476669,84.0,RESIDENTIAL,URBAN AND CENTER CITY,607 10TH STREET EAST,35404.0,Alabama,Tuscaloosa,Tuscaloosa,1125.0
33.217062,-87.538895,69.0,RESIDENTIAL,URBAN AND CENTER CITY,AIR POLLUTION TRAILER BRYCE HOSPITAL,,Alabama,Tuscaloosa,Tuscaloosa,1125.0
33.189931,-87.484189,128.0,RESIDENTIAL,SUBURBAN,3701 LOOP ROAD EAST,35404.0,Alabama,Tuscaloosa,Tuscaloosa,1125.0
33.089771999999996,-87.459733,69.0,COMMERCIAL,SUBURBAN,"11690 SOUTHFORK DR. DUNCANVILLE, AL_35456",35456.0,Alabama,Tuscaloosa,Tuscaloosa,1125.0
33.251784,-87.44861499999998,82.0,COMMERCIAL,RURAL,CORPS OF ENGINEERS BLDG HOLT LOCK & DAM,,Alabama,Tuscaloosa,Not in a city,1125.0
34.736478999999996,-87.788365,0.0,COMMERCIAL,URBAN AND CENTER CITY,108 NORTH WATER STREET,,Alabama,Tuscaloosa,Northport,1125.0
33.837050999999995,-87.277783,108.0,COMMERCIAL,URBAN AND CENTER CITY,CO HEALTH DEPT 5TH AVE & 17TH ST,,Alabama,Walker,Jasper,1127.0
33.832885,-87.27250500000002,109.0,RESIDENTIAL,SUBURBAN,HIGHLAND AVE. AND 17TH ST. EAST,35501.0,Alabama,Walker,Jasper,1127.0
33.638846,-87.11852999999998,250.0,AGRICULTURAL,RURAL,BIRMINGHAM WATER WORKS MULBERRY FORK FACILITY,35130.0,Alabama,Walker,Jasper,1127.0
31.255833000000006,-88.02296700000002,4.0,COMMERCIAL,RURAL,7010 HIGHWAY 43 NORTH,36553.0,Alabama,Washington,McIntosh,1129.0
55.324675,-160.508331,57.0,FOREST,RURAL,Simeonof,99661.0,Alaska,Aleutians East ,Sand Point,2013.0
61.216392000000006,-149.899428,38.0,COMMERCIAL,URBAN AND CENTER CITY,6TH AVE & K ST,,Alaska,Anchorage ,Anchorage,2020.0
61.219715,-149.892776,30.0,COMMERCIAL,URBAN AND CENTER CITY,GR ANCHORAGE AREA HLTH DEPT 217 E ST,99501.0,Alaska,Anchorage ,Anchorage,2020.0
61.219448,-149.875259,30.0,COMMERCIAL,SUBURBAN,527 E 4TH AVE,,Alaska,Anchorage ,Anchorage,2020.0
61.144712,-149.95193799999996,30.0,RESIDENTIAL,SUBURBAN,SAND LAKE FIRE STA 3939 WEST 84TH AVE,99502.0,Alaska,Anchorage ,Anchorage,2020.0
61.215837,-149.89553899999999,37.0,COMMERCIAL,URBAN AND CENTER CITY,CITY FIRE STATION/7TH & C ST,,Alaska,Anchorage ,Anchorage,2020.0
61.224451,-149.730257,85.0,RESIDENTIAL,SUBURBAN,MULDOON 109 NORTH BOUNDARY ROAD,,Alaska,Anchorage ,Anchorage,2020.0
61.191104,-149.802772,55.0,INDUSTRIAL,SUBURBAN,BOROUGH DOG POUND 3600 EAST TUDOR ROAD,99508.0,Alaska,Anchorage ,Anchorage,2020.0
61.179726,-149.835532,58.0,RESIDENTIAL,SUBURBAN,TUDOR #1 - 3500 EAST TUDOR ROAD,,Alaska,Anchorage ,Anchorage,2020.0
61.120003,-149.736637,296.0,UNKNOWN,RURAL,HIDEAWAY TRAILS,,Alaska,Anchorage ,Anchorage,2020.0
61.216115,-149.89553899999999,37.0,COMMERCIAL,URBAN AND CENTER CITY,CITY FIRE STATION 7TH & C STREET,,Alaska,Anchorage ,Anchorage,2020.0
61.21917,-149.897762,34.0,COMMERCIAL,URBAN AND CENTER CITY,7TH & C/625 C ST,,Alaska,Anchorage ,Anchorage,2020.0
61.250007999999994,-149.977224,30.0,INDUSTRIAL,URBAN AND CENTER CITY,1300 E & 4TH AVE,,Alaska,Anchorage ,Anchorage,2020.0
61.21388,-149.903053,56.0,COMMERCIAL,URBAN AND CENTER CITY,OLD COMMUNITY HOSPITAL 825 L STREET,99501.0,Alaska,Anchorage ,Anchorage,2020.0
61.195004,-149.90498300000004,30.0,COMMERCIAL,URBAN AND CENTER CITY,SPENARD & BENSON/2902 SPENARD RD,,Alaska,Anchorage ,Anchorage,2020.0
61.205861,-149.824602,39.0,RESIDENTIAL,SUBURBAN,3000 EAST 16TH AVENUE,99508.0,Alaska,Anchorage ,Anchorage,2020.0
61.227506999999996,-149.713868,110.0,RESIDENTIAL,RURAL,1/4 MILE S OILWELL RD & 3/4 MILE MULDOON,,Alaska,Anchorage ,Anchorage,2020.0
61.214726,-149.904429,21.0,COMMERCIAL,URBAN AND CENTER CITY,1045 WEST 8TH STREET,,Alaska,Anchorage ,Anchorage,2020.0
61.158891,-149.947761,40.0,RESIDENTIAL,SUBURBAN,SAND LAKE DISTICT/3426 RASPBERRY RD,,Alaska,Anchorage ,Anchorage,2020.0
61.218892,-149.89915,32.0,COMMERCIAL,URBAN AND CENTER CITY,ANCHORAGE TIMES BLDG-820 W. 4TH STREET,,Alaska,Anchorage ,Anchorage,2020.0
61.227227,-149.90081800000004,33.0,COMMERCIAL,URBAN AND CENTER CITY,ANCHORAGE CITY HALL - 4TH STREET,,Alaska,Anchorage ,Anchorage,2020.0
61.216949,-149.819424,44.0,COMMERCIAL,SUBURBAN,1100 AIRPORT HEIGHTS RD-FIRE STATION # 3,,Alaska,Anchorage ,Anchorage,2020.0
61.216947999999995,-149.890261,37.0,COMMERCIAL,URBAN AND CENTER CITY,"JC PENNEY, 6TH AVE W OF D ST",,Alaska,Anchorage ,Anchorage,2020.0
61.203615,-149.86942399999995,18.0,COMMERCIAL,URBAN AND CENTER CITY,GAMBELL RD/1820 GAMBELL,,Alaska,Anchorage ,Anchorage,2020.0
61.180558999999995,-149.810532,58.0,COMMERCIAL,SUBURBAN,TUDOR #2 - 3500 EAST TUDOR ROAD,,Alaska,Anchorage ,Anchorage,2020.0
61.227506999999996,-149.713868,131.0,INDUSTRIAL,SUBURBAN,8650 GLENN HIGHWAY,,Alaska,Anchorage ,Anchorage,2020.0
61.311678,-149.545825,152.0,RESIDENTIAL,SUBURBAN,"18001 BARONOF ST, EAGLE RIVER",,Alaska,Anchorage ,Not in a city,2020.0
61.320288,-149.59109899999999,747.0,FOREST,RURAL,ANCHORAGE WATER AND WASTEWATER UTILITY,,Alaska,Anchorage ,Anchorage,2020.0
61.342234999999995,-149.54665599999996,1202.0,COMMERCIAL,URBAN AND CENTER CITY,FIRE LAKE-RECREATION CENTER,,Alaska,Anchorage ,Anchorage,2020.0
61.193337,-149.868868,406.0,COMMERCIAL,URBAN AND CENTER CITY,SEWARD HWY & BENSON/3002 NEW SEWARD HWY,,Alaska,Anchorage ,Anchorage,2020.0
61.318067000000006,-149.570268,116.0,RESIDENTIAL,SUBURBAN,"10900 EAGLE RIVER RD, EAGLE RIVER",,Alaska,Anchorage ,Not in a city,2020.0
61.311678,-149.54277,159.0,RESIDENTIAL,SUBURBAN,"18216 BARONOF ST, EAGLE RIVER",,Alaska,Anchorage ,Not in a city,2020.0
61.311678,-149.545825,159.0,RESIDENTIAL,SUBURBAN,"CARIBOU/18001 BARANOF ST, EAGLE RIVER",,Alaska,Anchorage ,Not in a city,2020.0
61.113613,-149.877196,31.0,RESIDENTIAL,SUBURBAN,OCEAN VIEW ELEM/11911 JOHNS RD,,Alaska,Anchorage ,Anchorage,2020.0
61.21445,-149.725256,0.0,COMMERCIAL,SUBURBAN,MULDOON/1100 MULDOON ROAD,,Alaska,Anchorage ,Anchorage,2020.0
61.181082999999994,-149.817389,50.0,COMMERCIAL,URBAN AND CENTER CITY,3335 E TUDOR RD ANCHORAGE AK 99508,99507.0,Alaska,Anchorage ,Anchorage,2020.0
61.18111700000001,-149.834003,50.0,COMMERCIAL,URBAN AND CENTER CITY,4335 LAUREL STREET ANCHORAGE AK 99508,99508.0,Alaska,Anchorage ,Anchorage,2020.0
61.191514,-149.93493,21.0,RESIDENTIAL,SUBURBAN,3201 TURNAGAIN STREET,99517.0,Alaska,Anchorage ,Anchorage,2020.0
61.14027700000001,-149.947222,15.0,RESIDENTIAL,SUBURBAN,8851 JEWEL LAKE ROAD,,Alaska,Anchorage ,Anchorage,2020.0
61.115,-149.8461,71.08,RESIDENTIAL,URBAN AND CENTER CITY,11700 GREGORY RD,,Alaska,Anchorage ,Anchorage,2020.0
61.215497,-149.830175,42.0,COMMERCIAL,URBAN AND CENTER CITY,"2811 Merrill Field Dr, Anchorage AK",99501.0,Alaska,Anchorage ,Anchorage,2020.0
61.215027,-149.90311100000002,35.0,RESIDENTIAL,URBAN AND CENTER CITY,727 L Street,99501.0,Alaska,Anchorage ,Anchorage,2020.0
61.32445600000001,-149.566101,107.0,RESIDENTIAL,URBAN AND CENTER CITY,FIRE STATION BOX 241 (EAGLE RIVER),,Alaska,Anchorage ,Not in a city,2020.0
61.3267,-149.569707,100.0,COMMERCIAL,SUBURBAN,11723 OLD GLENN HIGHWAY,99577.0,Alaska,Anchorage ,Anchorage,2020.0
60.79583,-161.767,4.0,COMMERCIAL,RURAL,"370A 4th Avenue, Bethel, Alaska 99559",99559.0,Alaska,Bethel ,Bethel,2050.0
63.72320000000001,-148.9676,663.0,FOREST,RURAL,DENALI NATIONAL PARK,99743.0,Alaska,Denali ,Not in a City,2068.0
64.832894,-147.719128,157.0,COMMERCIAL,URBAN AND CENTER CITY,WOOLWORTH'S STORE 3RD & CUSHMAN,99701.0,Alaska,Fairbanks North Star ,Fairbanks,2090.0
64.844847,-147.72353600000002,140.0,COMMERCIAL,URBAN AND CENTER CITY,FEDERAL BLDG/2ND & CUSHMAN,,Alaska,Fairbanks North Star ,Fairbanks,2090.0
64.902895,-147.786358,216.0,,,N O & A A SITE 11/4 MI GRENAC ROAD,99709.0,Alaska,Fairbanks North Star ,College,2090.0
64.751901,-147.349652,146.0,RESIDENTIAL,SUBURBAN,NORTH POLE ELEMENTARY SCHOOL (NORTHPOLE),99705.0,Alaska,Fairbanks North Star ,North Pole,2090.0
64.833736,-147.733813,137.0,RESIDENTIAL,SUBURBAN,HUNTER SCHOOL 16TH 17TH & GILLAM WAY,,Alaska,Fairbanks North Star ,Fairbanks,2090.0
64.807891,-147.866073,137.0,COMMERCIAL,RURAL,FAIRBANKS INTL AIRPORT (FAIRBANKS),99709.0,Alaska,Fairbanks North Star ,Not in a City,2090.0
64.853171,-147.818576,137.0,RESIDENTIAL,SUBURBAN,UNIV PARK SCHOOL UNIV AVE (FAIRBANKS),99709.0,Alaska,Fairbanks North Star ,College,2090.0
64.861784,-147.728296,137.0,RESIDENTIAL,SUBURBAN,JOY SCHOOL LEMETA STREET,99701.0,Alaska,Fairbanks North Star ,Fairbanks,2090.0
64.840672,-147.722461,132.0,COMMERCIAL,URBAN AND CENTER CITY,"675 7TH AVENUE, FAIRBANKS",99701.0,Alaska,Fairbanks North Star ,Fairbanks,2090.0
64.84483900000001,-147.723573,140.0,MOBILE,URBAN AND CENTER CITY,WOOLWORTH'S 3RD & CUSHMAN,99701.0,Alaska,Fairbanks North Star ,Fairbanks,2090.0
64.845117,-147.727462,137.0,COMMERCIAL,URBAN AND CENTER CITY,"FAIRBANKS BOROUGH BUILDING, 2ND AVE.",99701.0,Alaska,Fairbanks North Star ,Fairbanks,2090.0
64.840402,-147.72548,125.0,COMMERCIAL,URBAN AND CENTER CITY,STATE OFFICE BLDG/675 7TH AVE,,Alaska,Fairbanks North Star ,Fairbanks,2090.0
64.842625,-147.716592,137.0,COMMERCIAL,URBAN AND CENTER CITY,"4TH AVE. AND LACEY ST., FAIRBANKS",,Alaska,Fairbanks North Star ,Fairbanks,2090.0
64.842625,-147.716592,148.0,COMMERCIAL,URBAN AND CENTER CITY,NEW BOROUGH BLDG SITE #1 - 4TH & LACEY,,Alaska,Fairbanks North Star ,Fairbanks,2090.0
64.842625,-147.716592,148.0,COMMERCIAL,URBAN AND CENTER CITY,4TH AND LACEY (BOROUGH OFFICES),,Alaska,Fairbanks North Star ,Fairbanks,2090.0
64.846514,-147.692425,141.0,RESIDENTIAL,URBAN AND CENTER CITY,NORDALE ELEMENTARY SCHOOL HAMILTON-EUREK,,Alaska,Fairbanks North Star ,Fairbanks,2090.0
64.83845600000001,-147.81909299999995,140.0,COMMERCIAL,SUBURBAN,ALASKA DIVISION OF LANDS OFFICE BLDG,,Alaska,Fairbanks North Star ,Fairbanks,2090.0
64.838458,-147.73603500000004,141.0,RESIDENTIAL,URBAN AND CENTER CITY,NOEL WEIN LIBRARY #1-COWLES & AIRPORT RD,,Alaska,Fairbanks North Star ,Fairbanks,2090.0
64.832347,-147.733813,136.0,RESIDENTIAL,URBAN AND CENTER CITY,HUNTER ELEM/17TH & GILLIAM WY,,Alaska,Fairbanks North Star ,Fairbanks,2090.0
64.845125,-147.72742499999995,140.0,COMMERCIAL,URBAN AND CENTER CITY,675 7TH AVE,,Alaska,Fairbanks North Star ,Fairbanks,2090.0
64.838458,-147.73603500000004,141.0,RESIDENTIAL,URBAN AND CENTER CITY,"NOEL WIEN LIBRARY #2,COWLES & AIRPORT RD",,Alaska,Fairbanks North Star ,Fairbanks,2090.0
64.84179,-147.75325800000005,136.0,INDUSTRIAL,URBAN AND CENTER CITY,"202 WIEN ST, NATIONAL GUARD ARMORY",,Alaska,Fairbanks North Star ,Fairbanks,2090.0
64.837347,-147.718257,134.0,COMMERCIAL,URBAN AND CENTER CITY,HERTZ BLDG/AIRPORT WY & STACIA ST,,Alaska,Fairbanks North Star ,Fairbanks,2090.0
64.843733,-147.859371,130.0,RESIDENTIAL,SUBURBAN,WEST PARK/STEELHEAD RD AT DARTMOUTH,,Alaska,Fairbanks North Star ,Fairbanks,2090.0
64.84650599999999,-147.69246099999995,141.0,RESIDENTIAL,SUBURBAN,Nordale Elementary School Hamilton & Eureka,99701.0,Alaska,Fairbanks North Star ,Fairbanks,2090.0
65.117356,-147.435787,495.0,FOREST,RURAL,POKER FLAT RESEARCH RANGE NE OF FAIRBANK,,Alaska,Fairbanks North Star ,Not in a City,2090.0
64.752336,-147.347208,146.0,RESIDENTIAL,SUBURBAN,NP Elementary/250 Snowman Lane,99705.0,Alaska,Fairbanks North Star ,North Pole,2090.0
64.84568999999999,-147.72741299999996,132.0,COMMERCIAL,URBAN AND CENTER CITY,809 Pioneer Road,99701.0,Alaska,Fairbanks North Star ,Fairbanks,2090.0
64.762973,-147.310297,145.0,RESIDENTIAL,SUBURBAN,"3288 Hurst Road, North Pole, Alaska 99705",99705.0,Alaska,Fairbanks North Star ,Not in a City,2090.0
64.759289,-147.372278,555.0,RESIDENTIAL,SUBURBAN,"North Pole Water/2696 Mockler Ave, North Pole AK 99507",99705.0,Alaska,Fairbanks North Star ,North Pole,2090.0
64.84593000000001,-147.69326999999996,135.0,RESIDENTIAL,SUBURBAN,397 Hamilton Ave,99701.0,Alaska,Fairbanks North Star ,Fairbanks,2090.0
64.86401,-147.85103999999995,202.0,UNKNOWN,UNKNOWN,"ROOF OF AERS BLDG. COLLEGE, ALASKA 99701",,Alaska,Fairbanks North Star ,Not in a city,2090.0
64.750676,-147.34272199999995,152.0,RESIDENTIAL,SUBURBAN,NORTH POLE WATER TREATMENT PLANT,99705.0,Alaska,Fairbanks North Star ,North Pole,2090.0
64.75096500000001,-147.33852199999995,154.0,RESIDENTIAL,SUBURBAN,NORTHPOLE HIGH SCHOOL  OFF SIXTH AVENUE,,Alaska,Fairbanks North Star ,Not in a city,2090.0
64.8262,-147.86893600000005,137.0,RESIDENTIAL,SUBURBAN,"Watershed Charter Sch/4975 Decathalon, Fairbanks AK 99709",99709.0,Alaska,Fairbanks North Star ,College,2090.0
64.84561,-147.727,103.0,COMMERCIAL,URBAN AND CENTER CITY,"809 Pioneer Rd., Fairbanks, AK, 99709",99709.0,Alaska,Fairbanks North Star ,College,2090.0
64.83913000000001,-147.872,145.0,RESIDENTIAL,SUBURBAN,"Wood River/5000 Palo Verde Ave., Fairbanks, AK, 99709",99709.0,Alaska,Fairbanks North Star ,College,2090.0
64.82880999999999,-147.866,145.0,RESIDENTIAL,SUBURBAN,"1975 Discovery Dr., Fairbanks, AK, 99709",99709.0,Alaska,Fairbanks North Star ,College,2090.0
64.82661999999999,-147.86893600000005,449.0,RESIDENTIAL,SUBURBAN,"4975 Decathlon Ave. Fairbanks, AK, 99709",99709.0,Alaska,Fairbanks North Star ,College,2090.0
64.84528,-147.68498499999995,555.0,RESIDENTIAL,SUBURBAN,"Hamilton Acres Baptist School / 311 B St., Fairbanks AK 99701",99701.0,Alaska,Fairbanks North Star ,Fairbanks,2090.0
64.827361,-147.890146,137.0,RESIDENTIAL,SUBURBAN,"Faith Baptist Church / 910 Chena Pump Road. Fairbanks, Alaska 99701",99709.0,Alaska,Fairbanks North Star ,North Pole,2090.0
64.861023,-147.78569,133.0,RESIDENTIAL,SUBURBAN,"Artisan Courtyard, College Rd",99709.0,Alaska,Fairbanks North Star ,College,2090.0
64.823025,-147.897463,137.0,RESIDENTIAL,SUBURBAN,"Chena Pump Road-Simplex Grinnell/1005 Chena Pump Rd, Fairbanks, AK 99709",99709.0,Alaska,Fairbanks North Star ,Fairbanks,2090.0
64.819233,-147.77808299999995,137.0,COMMERCIAL,URBAN AND CENTER CITY,"FNSB Transportation Yard / 3175 Peger Rd., Fairbanks AK 99709",99701.0,Alaska,Fairbanks North Star ,Fairbanks,2090.0
64.8451,-148.009217,186.0,RESIDENTIAL,RURAL,"Ester Volunteer Fire Dept / 3568 Old Nenana Hwy, Ester AK 99725",99701.0,Alaska,Fairbanks North Star ,Fairbanks,2090.0
64.805127,-147.701933,147.0,RESIDENTIAL,SUBURBAN,"FNSB Landfill \ 455 Sanduri St, Fairbanks, AK 99701",99709.0,Alaska,Fairbanks North Star ,Fairbanks,2090.0
64.85340000000001,-147.860167,137.0,AGRICULTURAL,SUBURBAN,UAF Farm-USDA Field Building,99709.0,Alaska,Fairbanks North Star ,College,2090.0
64.85421699999999,-147.76805,137.0,COMMERCIAL,URBAN AND CENTER CITY,FNSB Maintenance Building,99701.0,Alaska,Fairbanks North Star ,Fairbanks,2090.0
64.845281,-147.68390300000004,145.0,RESIDENTIAL,SUBURBAN,"Nordale neighborhood Fairbanks, Alaska 99701",99701.0,Alaska,Fairbanks North Star ,Fairbanks,2090.0
64.845281,-147.657503,145.0,RESIDENTIAL,SUBURBAN,"Siku neighborhood Fairbanks, Alaska 99701",99701.0,Alaska,Fairbanks North Star ,Fairbanks,2090.0
64.841247,-147.660722,145.0,RESIDENTIAL,SUBURBAN,"Birchwood neighborhood Fairbanks, Alaska 99701",99701.0,Alaska,Fairbanks North Star ,Fairbanks,2090.0
64.74199399999999,-147.28722199999999,151.0,RESIDENTIAL,SUBURBAN,"2770 Newby Rd, North Pole, AK 99705",99705.0,Alaska,Fairbanks North Star ,North Pole,2090.0
64.77583,-147.362222,144.0,RESIDENTIAL,SUBURBAN,"NP Christian School / 2963 Badger Rd., North Pole, AK  99705",99705.0,Alaska,Fairbanks North Star ,North Pole,2090.0
64.777777,-147.366667,100.0,RESIDENTIAL,SUBURBAN,North Pole Water Utility,99705.0,Alaska,Fairbanks North Star ,North Pole,2090.0
64.82506500000001,-147.53121199999995,143.0,RESIDENTIAL,SUBURBAN,"Ticasuk BrownElementary/ 785 Lakloey Dr, North Pole 99705",99705.0,Alaska,Fairbanks North Star ,Not in a City,2090.0
64.804272,-147.562052,142.0,RESIDENTIAL,SUBURBAN,"Bright Electric/1410 Old Richardson Hwy, North Pole AK, 997805",99705.0,Alaska,Fairbanks North Star ,North Pole,2090.0
64.805582,-147.544197,142.0,RESIDENTIAL,SUBURBAN,"Dennis & Bradway Intersection, North Pole",99705.0,Alaska,Fairbanks North Star ,North Pole,2090.0
64.67260300000001,-147.082926,165.0,MILITARY RESERVATION,SUBURBAN,"Eielson AFB Clinic/354th Medical Group; 2630 Central Ave #3349 , Eielson AFB, AK 99702",99702.0,Alaska,Fairbanks North Star ,Eielson (Air Force Base),2090.0
64.746764,-147.35454,555.0,RESIDENTIAL,SUBURBAN,"RAMS Trailer,  Patriot Dr. & Refinery Loop   North Pole, Ak  99705le",99705.0,Alaska,Fairbanks North Star ,North Pole,2090.0
64.750885,-147.33511299999995,555.0,RESIDENTIAL,SUBURBAN,"North Pole Water 5 / 171 5th Ave, North Pole AK 99507",99705.0,Alaska,Fairbanks North Star ,North Pole,2090.0
64.779333,-147.330157,145.0,RESIDENTIAL,SUBURBAN,"1944 Dixon Rd, North Pole 99705",99705.0,Alaska,Fairbanks North Star ,North Pole,2090.0
64.80472999999999,-147.41489,149.0,RESIDENTIAL,SUBURBAN,"Badger Road Elementary / 2301 Bradway Rd., North Pole  99507",99705.0,Alaska,Fairbanks North Star ,North Pole,2090.0
64.746627,-147.353268,148.0,RESIDENTIAL,SUBURBAN,"Patriot Drive and Refinery Loop, North Pole 99705",99705.0,Alaska,Fairbanks North Star ,North Pole,2090.0
59.29628,-135.51786299999998,6.0,INDUSTRIAL,RURAL,HAINES FERRY TERMINAL,99827.0,Alaska,Haines ,Lutak,2100.0
58.29821999999999,-134.409728,9.0,COMMERCIAL,URBAN AND CENTER CITY,"SUBPORT,COAST GUARD BASE",99801.0,Alaska,Juneau ,Juneau,2110.0
58.297451,-134.409826,17.0,COMMERCIAL,URBAN AND CENTER CITY,JUNEAU FIRE DEPARTMENT,,Alaska,Juneau ,Juneau,2110.0
58.357664,-134.50112099999998,5.0,RESIDENTIAL,SUBURBAN,C/O SEELY HALL 6 MILE GLACIER HWY,99801.0,Alaska,Juneau ,Juneau,2110.0
58.388496999999994,-134.567237,15.0,RESIDENTIAL,SUBURBAN,3800 MENDENHALL LOOP ROAD,99801.0,Alaska,Juneau ,Juneau,2110.0
58.390785,-134.565669,15.0,RESIDENTIAL,SUBURBAN,FLOYD DRYDEN JUNIOR HIGH SCHOOL - B,,Alaska,Juneau ,Juneau,2110.0
58.367173,-134.58205900000002,11.0,COMMERCIAL,SUBURBAN,SUPER BEAR SUPERMARKET,,Alaska,Juneau ,Juneau,2110.0
58.353285,-134.50621999999998,30.0,RESIDENTIAL,SUBURBAN,LEMON CREEK - 5937 MOUNTAIN AVE,,Alaska,Juneau ,Juneau,2110.0
58.353839,-134.614005,9.0,RESIDENTIAL,SUBURBAN,"MENDENHALL WASTE TRTMT PLANT,RODCLIFFE R",,Alaska,Juneau ,Juneau,2110.0
58.306062,-134.42621499999998,15.0,COMMERCIAL,URBAN AND CENTER CITY,GLACIER HWY. AND 12TH ST.,,Alaska,Juneau ,Juneau,2110.0
58.367173,-134.58205900000002,35.0,COMMERCIAL,SUBURBAN,MENDENHALL LOOP ROAD,,Alaska,Juneau ,Juneau,2110.0
58.358564,-134.501776,9.0,RESIDENTIAL,SUBURBAN,LOT #6 PINE STREET-LEMON CREEK,,Alaska,Juneau ,Juneau,2110.0
58.37411700000001,-134.58511399999998,11.0,COMMERCIAL,SUBURBAN,GLACIER AUTO(A)/MENDENHALL VILLAGE MALL,,Alaska,Juneau ,Juneau,2110.0
58.389118,-134.577337,15.0,RESIDENTIAL,SUBURBAN,TRIO STREET/3800 PORTAGE BLVD,,Alaska,Juneau ,Juneau,2110.0
58.389952,-134.565947,15.0,RESIDENTIAL,SUBURBAN,QUARTZ STREET/3731 QUARTZ STREET,,Alaska,Juneau ,Juneau,2110.0
58.362175,-134.515388,100.0,RESIDENTIAL,SUBURBAN,PARKING LOT OF SWITZER CREEK M.SCHOOL,,Alaska,Juneau ,Juneau,2110.0
58.358875,-134.510427,12.0,RESIDENTIAL,SUBURBAN,"6205 GLACIER HIGHWAY, JUNEAU, AK",,Alaska,Juneau ,Juneau,2110.0
58.365508,-134.516499,55.0,RESIDENTIAL,SUBURBAN,4480 MOUNTAINSIDE DRIVE,,Alaska,Juneau ,Juneau,2110.0
60.663325,-151.368904,46.0,INDUSTRIAL,RURAL,PHILLIPS PETROLEUM LNG PLT BOX 66 (KENAI,,Alaska,Kenai Peninsula ,Kenai,2122.0
60.566097,-151.25223,33.0,COMMERCIAL,URBAN AND CENTER CITY,FIRE/POLICE STA ON SAME ST AS AIRPORT,,Alaska,Kenai Peninsula ,Kenai,2122.0
60.73693299999999,-150.997784,30.0,INDUSTRIAL,RURAL,"WIK LAKE, KENAI",,Alaska,Kenai Peninsula ,Kenai,2122.0
60.107771,-149.435477,30.0,COMMERCIAL,URBAN AND CENTER CITY,SEWARD VOLUNTEER FIRE STATION,,Alaska,Kenai Peninsula ,Not in a city,2122.0
60.107771,-149.44381099999995,32.0,RESIDENTIAL,URBAN AND CENTER CITY,SEWARD HIGH SCHOOL 2ND AVE,,Alaska,Kenai Peninsula ,Not in a city,2122.0
60.107771,-149.418811,27.0,MOBILE,URBAN AND CENTER CITY,SEWARD AIRPORT,,Alaska,Kenai Peninsula ,Not in a city,2122.0
60.106366,-149.441025,34.0,COMMERCIAL,URBAN AND CENTER CITY,"WERNERS 230 FOURTH AVENUE, SEWARD",99664.0,Alaska,Kenai Peninsula ,Seward,2122.0
60.489167,-151.0693,34.0,RESIDENTIAL,SUBURBAN,"144 N. Binkley St, Soldotna, AK 99669",99669.0,Alaska,Kenai Peninsula ,Soldotna,2122.0
59.982667000000006,-152.66108899999998,15.0,FOREST,RURAL,Tuxedni,,Alaska,Kenai Peninsula ,Not in a City,2122.0
59.459318,-151.69847199999995,47.0,COMMERCIAL,RURAL,Equipment yard along Jakolof Bay Rd,99603.0,Alaska,Kenai Peninsula ,Seldovia Village,2122.0
59.469435,-151.656358,141.0,RESIDENTIAL,RURAL,Across from Barabara Heights Fire Department Conex along Jakolof Bay Road,99603.0,Alaska,Kenai Peninsula ,Seldovia Village,2122.0
59.643831999999996,-151.55212799999995,50.0,COMMERCIAL,URBAN AND CENTER CITY,FIRE DEPT. PIONEER AVENUE (HOMER),,Alaska,Kenai Peninsula ,Not in a city,2122.0
61.184139,-151.02863,23.0,INDUSTRIAL,RURAL,"BELUGA POWER PLANT BELUGA,AK",99682.0,Alaska,Kenai Peninsula ,Beluga,2122.0
60.694993999999994,-151.366127,45.0,RESIDENTIAL,RURAL,"BERNICE LAKE/AMBRYM AVE, NIKISHKA",,Alaska,Kenai Peninsula ,Not in a city,2122.0
60.684437,-151.375294,0.0,INDUSTRIAL,RURAL,PHILLIPS/1.8 MILES KENAI SPUR HIGHWAY,,Alaska,Kenai Peninsula ,Not in a city,2122.0
59.46280600000001,-151.687917,113.0,RESIDENTIAL,RURAL,1931 Jakolof Bay Rd,99603.0,Alaska,Kenai Peninsula ,Seldovia Village,2122.0
59.468101,-151.66185000000004,148.0,RESIDENTIAL,RURAL,2631 Jakolof Bay Rd,99603.0,Alaska,Kenai Peninsula ,Seldovia Village,2122.0
60.012315,-151.711491,5.0,FOREST,RURAL,Kenai Peninsula Borough (AK),99639.0,Alaska,Kenai Peninsula ,Happy Valley,2122.0
55.34293100000001,-131.644251,40.0,COMMERCIAL,URBAN AND CENTER CITY,STATE OFFICE BUILDING MAIN & GRANT STS,99901.0,Alaska,Ketchikan Gateway ,Ketchikan,2130.0
55.409876,-131.71981,55.0,INDUSTRIAL,RURAL,5 MILE N TONGASS HIGHWAY (KETCHIKAN),99901.0,Alaska,Ketchikan Gateway ,Not in a City,2130.0
55.378263,-131.69279699999998,9.0,INDUSTRIAL,RURAL,"ZEIDER RESIDENCE, KETCHIKAN",,Alaska,Ketchikan Gateway ,Not in a city,2130.0
55.406316,-131.740574,30.0,UNKNOWN,UNKNOWN,8 MILE N. TONGASS HWY,,Alaska,Ketchikan Gateway ,Not in a city,2130.0
55.404371,-131.748907,6.0,UNKNOWN,UNKNOWN,8 1/2 MILE N. TONGASS HWY,,Alaska,Ketchikan Gateway ,Not in a city,2130.0
55.346320999999996,-131.638353,31.0,COMMERCIAL,URBAN AND CENTER CITY,VALLEY PARK ELEM/1410 SCHOENBAR,,Alaska,Ketchikan Gateway ,Ketchikan,2130.0
55.351043,-131.650019,330.0,RESIDENTIAL,SUBURBAN,SESAME STREET/W. SESAME STREET,,Alaska,Ketchikan Gateway ,Ketchikan,2130.0
61.606402,-149.094731,76.0,AGRICULTURAL,RURAL,PALMER PARKS & MAINTENANCE BLDG (PALMER),99645.0,Alaska,Matanuska-Susitna ,Palmer,2170.0
61.53250799999999,-150.252229,15.0,UNKNOWN,UNKNOWN,S BIG LAKE ROAD,,Alaska,Matanuska-Susitna ,Not in a city,2170.0
61.515283999999994,-149.967504,43.0,UNKNOWN,UNKNOWN,SOUTH BIG LAKE ROAD,,Alaska,Matanuska-Susitna ,Not in a city,2170.0
61.560573,-149.352498,107.0,COMMERCIAL,SUBURBAN,1451 E PARKS HIGHWAY (KRISTEN SQUARE),,Alaska,Matanuska-Susitna ,Not in a City,2170.0
61.534163,-149.031655,30.0,RESIDENTIAL,RURAL,"HARRISON COURT,SITE LOCATED AT END OF CUL-DE-SAC",99645.0,Alaska,Matanuska-Susitna ,Not in a City,2170.0
61.608148,-149.209832,122.0,RESIDENTIAL,SUBURBAN,COLONY SCHOOL DRIVE,,Alaska,Matanuska-Susitna ,Not in a City,2170.0
62.314754,-150.317909,155.0,FOREST,RURAL,Trapper Creek,6.0,Alaska,Matanuska-Susitna ,Trapper Creek,2170.0
61.598898,-149.10622,72.0,RESIDENTIAL,SUBURBAN,SOUTH GULKANA STREET,99645.0,Alaska,Matanuska-Susitna ,Palmer,2170.0
61.59879599999999,-149.455255,102.0,COMMERCIAL,SUBURBAN,100 WEST SWANSON AVENUE,99654.0,Alaska,Matanuska-Susitna ,Wasilla,2170.0
70.291947,-148.70138400000005,9.0,INDUSTRIAL,RURAL,SOHIO-BP COMMUNICATION TOWER,,Alaska,North Slope ,Not in a city,2185.0
70.263611,-148.756938,15.0,INDUSTRIAL,RURAL,SOHIO DRILL PAD A,,Alaska,North Slope ,Not in a city,2185.0
70.24029,-148.23551899999995,15.0,INDUSTRIAL,RURAL,ARCO DRILL SITE 9,,Alaska,North Slope ,Not in a city,2185.0
68.637233,-149.590949,740.0,FOREST,RURAL,"1038 Toklat Way, Fairbanks, AK 99775-7005",7.0,Alaska,North Slope ,Not in a City,2185.0
67.5701,-162.96800000000005,22.0,RESIDENTIAL,RURAL,Government Airport Road,99750.0,Alaska,Northwest Arctic ,Noatak,2188.0
67.0931,-157.8689,88.0,FOREST,RURAL,"KOBUK VALLEY NATIONAL PARK, ALASKA",99749.0,Alaska,Northwest Arctic ,Ambler,2188.0
67.091949,-157.874821,67.0,FOREST,RURAL,Ambler,99749.0,Alaska,Northwest Arctic ,Ambler,2188.0
57.049638,-135.33148699999998,15.0,COMMERCIAL,URBAN AND CENTER CITY,SITKA MUNICIPAL BUILDING,,Alaska,Sitka ,Sitka,2220.0
57.055749,-135.337875,15.0,RESIDENTIAL,SUBURBAN,SWAN LAKE/LAKE ST,,Alaska,Sitka ,Sitka,2220.0
57.037076,-135.262748,8.0,INDUSTRIAL,RURAL,DR. WHITES RESIDENCE--THIMBLEBERRY BAY,99835.0,Alaska,Sitka ,Sitka,2220.0
57.057970999999995,-135.337875,15.0,RESIDENTIAL,SUBURBAN,LAKE STREET,,Alaska,Sitka ,Sitka,2220.0
57.057970999999995,-135.336486,10.0,RESIDENTIAL,SUBURBAN,ARROWHEAD/ARROWHEAD ST AT LAKE AVE,,Alaska,Sitka ,Sitka,2220.0
57.039915,-135.272042,0.0,RESIDENTIAL,SUBURBAN,THIMBLEBERRY BAY/105 SHOTGUN ALLEY,,Alaska,Sitka ,Sitka,2220.0
57.051305000000006,-135.238429,92.0,FOREST,RURAL,HEART LAKE/.25 MILE BLUE LAKE RD,,Alaska,Sitka ,Sitka,2220.0
57.039915,-135.290097,76.0,INDUSTRIAL,RURAL,3 MILE SAWMILL CREEK RD (SITKA),,Alaska,Sitka ,Not in a city,2220.0
59.45315,-135.32125,15.8,COMMERCIAL,URBAN AND CENTER CITY,"79 STATE ST., SKAGWAY",,Alaska,Skagway-Hoonah-Angoon,Not in a city,2232.0
59.46008000000001,-135.31053,16.0,RESIDENTIAL,SUBURBAN,"11TH AND MAIN ST., SKAGWAY",,Alaska,Skagway-Hoonah-Angoon,Not in a city,2232.0
61.134478,-146.346474,15.0,INDUSTRIAL,SUBURBAN,AK STATE HWY DEPT BLDG RICHARDSON HWY,,Alaska,Valdez-Cordova ,Not in a city,2261.0
61.074474,-146.38535,229.0,INDUSTRIAL,RURAL,VALDEZ TERMINAL 750 FT QUARRY,,Alaska,Valdez-Cordova ,Not in a city,2261.0
61.132534,-146.35203,18.0,INDUSTRIAL,URBAN AND CENTER CITY,COAST GUARD BLDG CITY OF VALDEZ,,Alaska,Valdez-Cordova ,Not in a city,2261.0
61.085586,-146.385353,9.0,INDUSTRIAL,RURAL,ENTRANCE TO VALDEZ TERMINAL SITE,,Alaska,Valdez-Cordova ,Not in a city,2261.0
61.099481999999995,-146.202033,9.0,INDUSTRIAL,SUBURBAN,ROBE RIVER SUBDIVISION SUBURB OF VALDEZ,,Alaska,Valdez-Cordova ,Not in a city,2261.0
61.088919,-146.395632,5.0,INDUSTRIAL,RURAL,ALYESKA TERMINAL BERTH #4 VALDEZ,,Alaska,Valdez-Cordova ,Not in a city,2261.0
56.703775,-132.381268,55.0,,RURAL,FED AVIATION AGENCY REMOTE RECEIVER SITE,99833.0,Alaska,Wrangell Petersburg,Not in a City,2280.0
56.403771,-132.33736499999998,6.0,INDUSTRIAL,RURAL,WILLIAM KREPPS RESIDENCE,99929.0,Alaska,Wrangell Petersburg,Wrangell,2280.0
56.61076,-132.81233999999998,0.0,FOREST,RURAL,PETERSBURG IMPROVE SITE,99833.0,Alaska,Wrangell Petersburg,Not in a City,2280.0
63.841207999999995,-148.977315,427.0,UNKNOWN,UNKNOWN,EUGINE RESIDENCE (HEALY),,Alaska,Yukon-Koyukuk ,Not in a city,2290.0
63.853152,-148.971205,427.0,INDUSTRIAL,RURAL,HEALY AIRPORT - NENANA RIVER,,Alaska,Yukon-Koyukuk ,Not in a city,2290.0
66.93093,-151.49187999999995,205.0,FOREST,RURAL,"Bettles Field, AK",99726.0,Alaska,Yukon-Koyukuk ,Evansville,2290.0
36.94083300000001,-109.108056,1521.0,UNKNOWN,RURAL,TEEC NOS POS,,Arizona,Apache,Teec Nos Pos,4001.0
36.587778,-109.2025,1862.0,UNKNOWN,RURAL,RED ROCK,,Arizona,Apache,Red Rock,4001.0
34.11303,-109.29344,2126.0,RESIDENTIAL,URBAN AND CENTER CITY,"CENTRAL AND HARLESS  EAGAR, AZ",,Arizona,Apache,Eagar,4001.0
34.4225,-109.15,1981.0,INDUSTRIAL,RURAL,ST. JOHNS (13.3 MI EAST AND 31 DEGREES S,,Arizona,Apache,Saint Johns,4001.0
34.128103,-109.307586,2140.0,RESIDENTIAL,RURAL,"AIRPORT, SPRINGERVILLE",,Arizona,Apache,Springerville,4001.0
34.172824,-109.230362,2286.0,,RURAL,COYOTE HILLS-6 MI NE OF SPRINGERVILLE,,Arizona,Apache,Springerville,4001.0
34.330044,-109.155362,2128.0,INDUSTRIAL,RURAL,"1 MI NNE OF UNIT 1 STACK, SPRINGERVILLE",,Arizona,Apache,Springerville,4001.0
34.313377,-109.14564,2128.0,INDUSTRIAL,RURAL,"1 MI ESE OF UNIT 1 STACK, SPRINGERVILLE",,Arizona,Apache,Springerville,4001.0
34.131713999999995,-109.282309,2128.0,INDUSTRIAL,RURAL,"1 MI SSE OF UNIT 1 STACK, SPRINGERVILLE",,Arizona,Apache,Springerville,4001.0
35.077245,-109.770394,1755.0,DESERT,RURAL,"1 MI FROM VISITORS CENTER, PETRIFIED FNP",,Arizona,Apache,Petrified Forest National Park,4001.0
34.07339,-109.85801000000001,2230.0,RESIDENTIAL,RURAL,51 Nasco Avenue,85901.0,Arizona,Apache,McNary,4001.0
35.746005,-109.072386,0.0,RESIDENTIAL,RURAL,"ROUTE 12 NORTH, BUILDING F-004-051",86504.0,Arizona,Apache,Fort Defiance,4001.0
35.880404,-109.438003,0.0,RESIDENTIAL,RURAL,"Indian Route 27, Mile Post 14, 1/4 Mi N. Power Line Rd.",86503.0,Arizona,Apache,Nazlini (Trading Post),4001.0
34.058475,-109.441259,2509.0,FOREST,RURAL,Mount Baldy,85925.0,Arizona,Apache,Not in a City,4001.0
31.410556,-109.876111,468.0,COMMERCIAL,URBAN AND CENTER CITY,CITY HALL 118 AZ. ST. BISBEE AZ 85603,,Arizona,Cochise,Bisbee,4003.0
31.380556,-109.746667,1279.0,INDUSTRIAL,RURAL,LEE WAY MTR FRE U S 80 PAUL SPUR DOUGLAS,85603.0,Arizona,Cochise,Not in a City,4003.0
31.364721999999997,-109.594444,1201.0,INDUSTRIAL,RURAL,COCHISE CO HOSP RURAL ROUTE 1 (DOUGLAS),,Arizona,Cochise,Douglas,4003.0
31.365555999999998,-109.583611,1225.0,INDUSTRIAL,RURAL,RURAL ROUTE #1 217C (DOUGLAS) OAK AVE.,,Arizona,Cochise,Douglas,4003.0
31.358889,-109.738056,1279.0,INDUSTRIAL,RURAL,PAUL SPUR,,Arizona,Cochise,Paul Spur,4003.0
31.894444,-110.246389,1117.0,INDUSTRIAL,RURAL,RT 1 BOX 35 (ST DAVID),,Arizona,Cochise,Saint David,4003.0
31.896666999999997,-110.27361100000002,1132.0,AGRICULTURAL,RURAL,3 1/2 MILES WEST OF ST. DAVID,,Arizona,Cochise,Saint David,4003.0
31.374167,-109.734167,1292.0,INDUSTRIAL,RURAL,"PAUL SPUR, AZ (NEAR DOUGLAS, AZ)",,Arizona,Cochise,Paul Spur,4003.0
31.3658,-109.73095,1278.0,INDUSTRIAL,RURAL,"HOUSING AREA, PAUL SPUR",85607.0,Arizona,Cochise,Paul Spur,4003.0
31.34848,-109.548698,0.0,,,"FAIRGROUNDS, DOUGLAS",85607.0,Arizona,Cochise,Douglas,4003.0
31.348436,-109.548956,0.0,UNKNOWN,UNKNOWN,"PUMPHOUSE-5 MI NNE OF STACK, DOUGLAS",,Arizona,Cochise,Douglas,4003.0
31.348714,-109.549234,0.0,UNKNOWN,UNKNOWN,"8 MI S OF STEDES-MEX BDR, DOUGLAS",,Arizona,Cochise,Douglas,4003.0
31.351944,-109.582222,1225.0,INDUSTRIAL,RURAL,"AZ HWY DEPT YARD-HWY 80 & 666, DOUGLAS",,Arizona,Cochise,Douglas,4003.0
31.353889,-109.541111,1221.0,INDUSTRIAL,SUBURBAN,"AZ HWY DEPT-2100 AVE A, DOUGLAS",,Arizona,Cochise,Douglas,4003.0
31.334895,-109.559158,1250.0,INDUSTRIAL,SUBURBAN,"CUSTOMS BLDG-1ST & RR AVE, DOUGLAS",85607.0,Arizona,Cochise,Douglas,4003.0
31.349733,-109.539695,1225.0,RESIDENTIAL,SUBURBAN,"15TH ST PARK, DOUGLAS",,Arizona,Cochise,Douglas,4003.0
31.3492,-109.539683,1231.0,RESIDENTIAL,URBAN AND CENTER CITY,1445-1449 15TH STREET,85607.0,Arizona,Cochise,Douglas,4003.0
31.350031,-109.537788,1237.0,COMMERCIAL,URBAN AND CENTER CITY,DOUGLAS HIGH SCHOOL 1500 15TH ST.,,Arizona,Cochise,Douglas,4003.0
31.383435,-109.517289,0.0,INDUSTRIAL,SUBURBAN,"US QUARANTINE STN, DOUGLAS",,Arizona,Cochise,Douglas,4003.0
31.566389,-110.3,1408.0,RESIDENTIAL,SUBURBAN,"75 CARGIL NW, SIERRA VISTA",,Arizona,Cochise,Sierra Vista (Garden Canon),4003.0
31.555000000000003,-110.29,1401.0,RESIDENTIAL,SUBURBAN,"HWY 90 & FRY BLVD. SIERRA VISTA, ARIZONA",,Arizona,Cochise,Sierra Vista (Garden Canon),4003.0
31.553333,-110.300278,1408.0,COMMERCIAL,URBAN AND CENTER CITY,"1ST & BARTOW DR, SIERRA VISTA",,Arizona,Cochise,Sierra Vista (Garden Canon),4003.0
32.009409999999995,-109.38906,1569.0,DESERT,RURAL,CHIRICAHUA NATIONAL MOUMENT,85643.0,Arizona,Cochise,Not in a City,4003.0
31.349183,-109.539733,1233.0,FOREST,RURAL,DOUGLASS IMPROVE SITE,85607.0,Arizona,Cochise,Douglas,4003.0
36.051403,-112.14214,2121.0,,RURAL,VISITOR CENTER GRAND CANYON VILLAGE REG,86046.0,Arizona,Coconino,Grand Canyon Village,4005.0
36.91388900000001,-111.423889,1219.0,,RURAL,2 MILES SSE PAGE,86040.0,Arizona,Coconino,Page,4005.0
36.15,-111.25,1506.0,UNKNOWN,UNKNOWN,"PHS HOSPITAL, TUBA CITY",,Arizona,Coconino,Tuba City,4005.0
36.928056,-111.455556,1308.0,UNKNOWN,RURAL,"AIRPORT, PAGE",,Arizona,Coconino,Page,4005.0
36.8625,-111.440833,1420.0,UNKNOWN,RURAL,LECHEE ROCK,,Arizona,Coconino,Not in a city,4005.0
35.260556,-111.725278,232.0,AGRICULTURAL,RURAL,BOX 939 ROUTE NUMBER 4 FLAGSTAFF AZ 8600,,Arizona,Coconino,Flagstaff,4005.0
36.867222,-111.590833,972.0,UNKNOWN,RURAL,LEE'S FERRY,,Arizona,Coconino,Lees Ferry,4005.0
36.148610999999995,-111.238056,1576.0,UNKNOWN,RURAL,TUBA CITY,,Arizona,Coconino,Tuba City,4005.0
36.59027800000001,-111.084722,1829.0,UNKNOWN,RURAL,KAIBITO,,Arizona,Coconino,Kaibito (Lower Kaibito),4005.0
36.613333,-111.444444,1844.0,UNKNOWN,RURAL,COPPERMINE,,Arizona,Coconino,Copper Mines (Trading Post),4005.0
36.374722,-111.695278,1817.0,UNKNOWN,RURAL,BODAWAY,,Arizona,Coconino,Not in a city,4005.0
36.771667,-111.088056,1692.0,UNKNOWN,RURAL,TSAI SKIZZI ROCK,,Arizona,Coconino,Not in a city,4005.0
36.148610999999995,-111.238889,1558.0,COMMERCIAL,RURAL,"TUBA CITY, ARIZONA",,Arizona,Coconino,Tuba City,4005.0
36.05165,-112.142392,2134.0,UNKNOWN,UNKNOWN,"BATTLESHIP LOOKOUT TOWER GRAND CANYON, A",,Arizona,Coconino,Grand Canyon,4005.0
35.198889,-111.646111,2103.0,MOBILE,URBAN AND CENTER CITY,"BIRCH & SAN FRANCISCO ST, FLAGSTAFF",,Arizona,Coconino,Flagstaff,4005.0
35.198333,-111.645278,2103.0,INDUSTRIAL,URBAN AND CENTER CITY,"216 N AGASSIZ ST, FLAGSTAFF",,Arizona,Coconino,Flagstaff,4005.0
35.20789600000001,-111.655625,2105.0,RESIDENTIAL,SUBURBAN,FLAGSTAFF THORPE PK,,Arizona,Coconino,Flagstaff,4005.0
35.213889,-111.6125,2097.0,COMMERCIAL,SUBURBAN,"2501 N 4TH STREET, FLAGSTAFF",,Arizona,Coconino,Flagstaff,4005.0
35.199179,-111.647939,2103.0,COMMERCIAL,URBAN AND CENTER CITY,"220 N LEROUX ST, FLAGSTAFF",,Arizona,Coconino,Flagstaff,4005.0
35.199456,-111.642384,2103.0,COMMERCIAL,URBAN AND CENTER CITY,"CHERRY & AGASSIZ, FLAGSTAFF",,Arizona,Coconino,Flagstaff,4005.0
35.206111,-111.652777,2120.0,RESIDENTIAL,SUBURBAN,755 W BONITO,86001.0,Arizona,Coconino,Flagstaff,4005.0
35.221481,-111.566897,2134.0,COMMERCIAL,URBAN AND CENTER CITY,5701 E. RAILHEAD AVE.,86001.0,Arizona,Coconino,Flagstaff,4005.0
34.866665999999995,-111.765,1279.0,COMMERCIAL,URBAN AND CENTER CITY,SR 89A & SR179 POST OFFICE,86336.0,Arizona,Coconino,Sedona,4005.0
36.125018,-111.234727,1500.0,COMMERCIAL,RURAL,"101 Main Street, Tuba City, AZ",86045.0,Arizona,Coconino,Not in a City,4005.0
36.055261,-112.12211299999998,2120.0,UNKNOWN,RURAL,VISITOR CENTER GRAND CANYON VILLAGE REG,,Arizona,Coconino,Grand Canyon,4005.0
36.080539,-112.155726,2134.0,UNKNOWN,RURAL,HOPI POINT GRAND CANYON NATIONAL PARK,,Arizona,Coconino,Grand Canyon,4005.0
36.059705,-112.182948,2073.0,DESERT,RURAL,"THE ABYSS-W RIM DR, GRAND CANYON",,Arizona,Coconino,Grand Canyon,4005.0
36.05864,-112.1836,2070.0,FOREST,RURAL,"GRAND CANYON NATIONAL PARK, W RIM DRIVE",86046.0,Arizona,Coconino,Grand Canyon Village,4005.0
36.077814,-112.129551,1166.0,FOREST,RURAL,Indian Gardens,86046.0,Arizona,Coconino,Not in a City,4005.0
36.077614,-112.129651,1166.0,FOREST,RURAL,Indian Gardens 2 (High Sensitivity);,86046.0,Arizona,Coconino,Not in a City,4005.0
35.97311699999999,-111.984846,2267.0,FOREST,RURAL,Hance Camp at Grand Canyon NP,86046.0,Arizona,Coconino,Not in a City,4005.0
35.140634999999996,-111.96993799999998,2046.0,FOREST,RURAL,Sycamore Canyon,86001.0,Arizona,Coconino,Not in a City,4005.0
35.1639,-111.9823,2046.0,AGRICULTURAL,RURAL,"Sycamore Canyon, AZ",86046.0,Arizona,Coconino,Parks (Maine),4005.0
33.446944,-110.840833,1098.0,INDUSTRIAL,SUBURBAN,"AZ HWY DEPT YARD-HWY 60-70, CLAYPOOL",,Arizona,Gila,Claypool,4007.0
33.00626,-110.77309,588.0,INDUSTRIAL,URBAN AND CENTER CITY,"PO-GRIFFIN ST & HWY 177, WINKELMAN",,Arizona,Gila,Winkelman,4007.0
33.44,-110.829444,1006.0,AGRICULTURAL,RURAL,"1.6 MI N OF HWY 88 FROM HWY 60-7, MIAMI",,Arizona,Gila,Miami,4007.0
33.410000000000004,-110.846944,1021.0,COMMERCIAL,SUBURBAN,"HWY 60 & INSPIRATION RD, MIAMI",,Arizona,Gila,Miami,4007.0
33.419167,-110.826111,1067.0,INDUSTRIAL,SUBURBAN,"3.6 KM ENE OF SMELTER STACK, MIAMI",,Arizona,Gila,Miami,4007.0
33.404722,-110.817222,1074.0,INDUSTRIAL,SUBURBAN,"MIAMI SE-LANDFILL BY LITTLE ACRE, MIAMI",,Arizona,Gila,Miami,4007.0
33.395833,-110.8225,1044.0,INDUSTRIAL,SUBURBAN,"RUSSEL & HUIE-LITTLE ACRES, MIAMI",,Arizona,Gila,Miami,4007.0
34.229733,-111.3295,1497.0,COMMERCIAL,URBAN AND CENTER CITY,204 W AERO DR,85541.0,Arizona,Gila,Payson,4007.0
33.399135,-110.858896,1085.0,RESIDENTIAL,RURAL,4030 LINDEN STREET,85539.0,Arizona,Gila,Miami,4007.0
33.6547,-111.1074,786.0,DESERT,RURAL,SOUTH OF SR88,85539.0,Arizona,Gila,Tonto National Monument,4007.0
33.3855,-110.867267,1242.0,INDUSTRIAL,RURAL,Cherry Flats Rd.,85539.0,Arizona,Gila,Not in a City,4007.0
33.397433,-110.87445,1035.0,INDUSTRIAL,RURAL,Sullivan ST & Davis Canyon,85539.0,Arizona,Gila,Miami,4007.0
33.028676000000004,-110.809551,701.0,UNKNOWN,UNKNOWN,MONTGOMERY-REESE RANCH (HAYDEN)-HAYDEN N,,Arizona,Gila,Hayden,4007.0
33.00315,-110.780409,0.0,,,WINKLEMAN SCHOOL AREA (HAYDEN),85292.0,Arizona,Gila,Hayden,4007.0
33.003426999999995,-110.780687,0.0,,,KENNECOTT RESERVOIR (HAYDEN),85292.0,Arizona,Gila,Hayden,4007.0
33.003705,-110.780965,0.0,,,SLAG PILE W OF KENNECOTT STACK (HAYDEN),85292.0,Arizona,Gila,Hayden,4007.0
33.371722999999996,-110.781776,1134.0,UNKNOWN,UNKNOWN,AUGUST HILL TRAILER PARK GLOBE ARIZONA,,Arizona,Gila,Globe,4007.0
33.006178999999996,-110.785797,625.0,INDUSTRIAL,URBAN AND CENTER CITY,"JAIL-CANYON DR, HAYDEN",85292.0,Arizona,Gila,Hayden,4007.0
33.002517,-110.765467,602.0,DESERT,RURAL,SR 77,85292.0,Arizona,Gila,Not in a City,4007.0
33.0035,-110.7822,635.0,INDUSTRIAL,RURAL,123 Hillcrest Ave,85292.0,Arizona,Gila,Hayden,4007.0
33.385278,-110.86638899999998,1250.0,AGRICULTURAL,RURAL,"1.8 MI SSE OF SMELTER STACK, MIAMI",,Arizona,Gila,Miami,4007.0
33.400084,-110.870693,0.0,,,"SMELTER SLAG PILE, MIAMI",85539.0,Arizona,Gila,Miami,4007.0
33.40064,-110.870971,0.0,,,"GOLDEN HILLS APTS, MIAMI",85539.0,Arizona,Gila,Miami,4007.0
33.397555,-110.874001,1098.0,COMMERCIAL,URBAN AND CENTER CITY,"804 SULLIVAN, MIAMI",,Arizona,Gila,Miami,4007.0
33.419017,-110.82967,1012.0,RESIDENTIAL,RURAL,SR 188 & US 60,85539.0,Arizona,Gila,Globe,4007.0
33.002404999999996,-110.78485,622.7064,INDUSTRIAL,URBAN AND CENTER CITY,2nd Street and Garfield Ave,85292.0,Arizona,Gila,Hayden,4007.0
32.99304,-110.771458,608.99,DESERT,RURAL,824 Thorne Ave,85292.0,Arizona,Gila,Winkelman,4007.0
34.090866,-110.942801,1600.0,FOREST,RURAL,Sierra Ancha,85541.0,Arizona,Gila,Young,4007.0
33.404582999999995,-110.859188,1032.0,AGRICULTURAL,RURAL,1.8 MILES SOUTH OF SMELTER,,Arizona,Gila,Miami,4007.0
33.418889,-110.824167,0.0,COMMERCIAL,URBAN AND CENTER CITY,SOUTHWEST GAS YARD,,Arizona,Gila,Miami,4007.0
33.396944,-110.698889,0.0,RESIDENTIAL,URBAN AND CENTER CITY,SULLIVAN ST,,Arizona,Gila,Miami,4007.0
34.109111999999996,-111.352828,952.0,INDUSTRIAL,RURAL,MILE 241 HWY 87 ADOT YARD IN RYE,,Arizona,Gila,Rye,4007.0
32.83388,-109.718611,899.0,COMMERCIAL,URBAN AND CENTER CITY,"523 10TH AVE, SAFFORD",85546.0,Arizona,Graham,Safford,4009.0
33.046212,-109.290925,1073.0,COMMERCIAL,URBAN AND CENTER CITY,"COURT HOUSE, CLIFTON",85540.0,Arizona,Greenlee,Clifton,4011.0
33.062222,-109.305,1056.0,INDUSTRIAL,URBAN AND CENTER CITY,"PO-N CORONADO BLVD, CLIFTON",,Arizona,Greenlee,Clifton,4011.0
33.055278,-109.319444,1248.0,INDUSTRIAL,SUBURBAN,"LONGFELLOW SCH-INDIAN RD, CLIFTON",,Arizona,Greenlee,Clifton,4011.0
33.695454,-109.206112,2438.0,UNKNOWN,UNKNOWN,APACHE-SITGREAVES NF,,Arizona,Greenlee,Not in a city,4011.0
33.089507,-109.287571,1676.0,INDUSTRIAL,RURAL,"CADILLAC POINT, MORENCI",,Arizona,Greenlee,Morenci,4011.0
33.0801,-109.363705,0.0,,,"PD SMELTER-E OF GILA RD, MORENCI",85540.0,Arizona,Greenlee,Not in a City,4011.0
33.0801,-109.363982,0.0,,,"EAGLE CREEK CANYON, MORENCI",85540.0,Arizona,Greenlee,Not in a City,4011.0
33.080378,-109.36426000000002,0.0,,,"SAN FRANCISCO RIVER SITE, MORENCI",85540.0,Arizona,Greenlee,Not in a City,4011.0
33.010278,-109.363889,1474.0,INDUSTRIAL,RURAL,MORENCI SITE,,Arizona,Greenlee,Morenci,4011.0
34.149722,-114.28861100000002,128.0,COMMERCIAL,URBAN AND CENTER CITY,"914 ARIZONA AVE  PARKER, ARIZONA",,Arizona,La Paz,Parker,4012.0
34.243900000000004,-113.5586,376.0,DESERT,RURAL,ALAMO LAKE STATE PARK,85348.0,Arizona,La Paz,Wenden,4012.0
33.420631,-112.344345,288.0,RESIDENTIAL,RURAL,"1201 S 4TH ST, AVONDALE",85323.0,Arizona,Maricopa,Avondale,4013.0
33.26533,-111.650967,422.0,RESIDENTIAL,SUBURBAN,E QUEEN CREEK RD BOY'S RANCH QUEEN CREEK,,Arizona,Maricopa,Queen Creek (RittenHouse),4013.0
33.329772,-111.6343,430.0,UNKNOWN,UNKNOWN,13300 SOUTH ELLSWORTH RD (PHOENIX),,Arizona,Maricopa,Phoenix,4013.0
33.371431,-112.584888,266.0,COMMERCIAL,SUBURBAN,108 N 5TH ST BUCKEYE,,Arizona,Maricopa,Buckeye,4013.0
33.875316999999995,-111.87431399999998,1134.0,UNKNOWN,RURAL,TONTO HILL OB 115 HO-HO-KAM-LN (CAREFREE,,Arizona,Maricopa,Carefree,4013.0
33.818095,-111.897924,777.0,UNKNOWN,RURAL,CAREFREE AIRPORT (CAREFREE),,Arizona,Maricopa,Carefree,4013.0
33.290325,-112.170149,312.0,UNKNOWN,UNKNOWN,ST JOHNS INDIAN SCHOOL (ST JOHNS),,Arizona,Maricopa,Saint Johns Mission,4013.0
33.366714,-111.960977,381.0,AGRICULTURAL,RURAL,ENCINAS ROAD (GUADALUPE),,Arizona,Maricopa,Guadalupe,4013.0
33.455597999999995,-112.358492,325.0,RESIDENTIAL,SUBURBAN,"LITCHFIELD & VILLANUEVA, LITCHFIELD PARK",,Arizona,Maricopa,Litchfield Park,4013.0
33.443933,-112.079871,330.0,COMMERCIAL,URBAN AND CENTER CITY,"500 S 3RD AVE, PHOENIX",,Arizona,Maricopa,Phoenix,4013.0
33.400045,-112.120149,317.0,INDUSTRIAL,RURAL,"3602 W ELWOOD, PHOENIX",,Arizona,Maricopa,Phoenix,4013.0
33.405322999999996,-112.074036,328.0,RESIDENTIAL,URBAN AND CENTER CITY,4732 S CENTRAL AVE-SOUTH PHOENIX STATION,,Arizona,Maricopa,Phoenix,4013.0
33.449211,-112.097372,327.0,COMMERCIAL,URBAN AND CENTER CITY,"1740 W ADAMS ST, PHOENIX",,Arizona,Maricopa,Phoenix,4013.0
33.466711,-111.970701,393.0,RESIDENTIAL,RURAL,"2035 N 52ND ST, PHOENIX",,Arizona,Maricopa,Phoenix,4013.0
33.49462,-112.13098,341.0,COMMERCIAL,URBAN AND CENTER CITY,"3315 W INDIAN SCHOOL RD, PHOENIX",85017.0,Arizona,Maricopa,Phoenix,4013.0
33.466153999999996,-112.099316,330.0,COMMERCIAL,URBAN AND CENTER CITY,"1826 W MCDOWELL RD-FAIRGROUNDS, PHOENIX",,Arizona,Maricopa,Phoenix,4013.0
33.462264999999995,-112.149874,326.0,RESIDENTIAL,SUBURBAN,"4202 W BELLVIEW, PHOENIX",,Arizona,Maricopa,Phoenix,4013.0
33.483779999999996,-112.14256,333.0,RESIDENTIAL,SUBURBAN,3847 W EARLL DR-WEST PHOENIX STATION,85019.0,Arizona,Maricopa,Phoenix,4013.0
33.485599,-112.123206,0.0,COMMERCIAL,URBAN AND CENTER CITY,"2750 W INDIAN SCH RD, PHOENIX",,Arizona,Maricopa,Phoenix,4013.0
33.287828000000005,-111.817361,357.0,RESIDENTIAL,SUBURBAN,1475 E PECOS RD-CHANDLER STATION,,Arizona,Maricopa,Chandler,4013.0
33.479136,-112.112493,338.0,INDUSTRIAL,URBAN AND CENTER CITY,"27TH AVE/GRAND AVE/THOMAS RD,PHOENIX",,Arizona,Maricopa,Phoenix,4013.0
33.308382,-111.838195,371.0,RESIDENTIAL,RURAL,"250 E COMMONWEALTH, CHANDLER",,Arizona,Maricopa,Chandler,4013.0
33.410046,-111.86486399999998,379.0,COMMERCIAL,SUBURBAN,"3RD PLACE & CENTER, MESA",,Arizona,Maricopa,Mesa,4013.0
33.41018,-111.86536,383.0,COMMERCIAL,SUBURBAN,"310 S BROOKS, MESA",85202.0,Arizona,Maricopa,Mesa,4013.0
33.56031,-112.06619,378.0,RESIDENTIAL,SUBURBAN,"601 E BUTLER DR & N 6TH ST,PHOENIX",85020.0,Arizona,Maricopa,Phoenix,4013.0
33.406156,-112.041258,328.0,INDUSTRIAL,URBAN AND CENTER CITY,"30 W CORONA AVE, PHOENIX",,Arizona,Maricopa,Phoenix,4013.0
33.510875,-112.130707,348.0,COMMERCIAL,SUBURBAN,"47TH AVE & OSBORN RD, PHOENIX",,Arizona,Maricopa,Phoenix,4013.0
33.429489000000004,-112.01848,339.0,COMMERCIAL,URBAN AND CENTER CITY,"SKY HARBOR AIRPORT, PHOENIX",,Arizona,Maricopa,Phoenix,4013.0
33.464765,-112.099316,330.0,COMMERCIAL,URBAN AND CENTER CITY,"MCDOWELL RD & 19TH AVE, PHOENIX",,Arizona,Maricopa,Phoenix,4013.0
33.464765,-112.099316,330.0,COMMERCIAL,URBAN AND CENTER CITY,"1826 W MCDOWELL RD, PHOENIX",,Arizona,Maricopa,Phoenix,4013.0
33.45244,-111.73327,384.0,DESERT,RURAL,4530 E MCKELLIPS RD-FALCON FIELD STATION,85215.0,Arizona,Maricopa,Mesa,4013.0
33.574529999999996,-112.19193,350.0,RESIDENTIAL,RURAL,"6000 W OLIVE AVE,GLENDALE",85302.0,Arizona,Maricopa,Glendale,4013.0
33.604208,-112.003481,426.0,RESIDENTIAL,SUBURBAN,"3546 E SWEETWATER RD, PARADISE VALLEY",,Arizona,Maricopa,Paradise Valley,4013.0
33.493685,-112.12906100000001,341.0,,,"AIR POLL SECT DIV OF ENV HLTH, PHOENIX",85017.0,Arizona,Maricopa,Phoenix,4013.0
33.604486,-111.928479,434.0,COMMERCIAL,RURAL,"13665 N SCOTTSDALE RD, SCOTTSDALE",,Arizona,Maricopa,Scottsdale,4013.0
33.70639,-111.85575,733.0,RESIDENTIAL,SUBURBAN,24301 N ALMA SCHOOL RD,85255.0,Arizona,Maricopa,Scottsdale,4013.0
33.555351,-111.958224,434.0,RESIDENTIAL,SUBURBAN,8102 MUMMY MTN RD (PARADISE VALLEY),85253.0,Arizona,Maricopa,Paradise Valley,4013.0
33.45797,-112.04659,339.0,RESIDENTIAL,URBAN AND CENTER CITY,1645 E ROOSEVELT ST-CENTRAL PHOENIX STN,85006.0,Arizona,Maricopa,Phoenix,4013.0
33.47968,-111.91721,368.0,RESIDENTIAL,SUBURBAN,2857 N MILLER RD-S SCOTTSDALE STN,85257.0,Arizona,Maricopa,Scottsdale,4013.0
33.469766,-111.96708999999998,0.0,COMMERCIAL,SUBURBAN,2035 N 52ND ST-EMERG MGMT STN-PAPAGO PRK,,Arizona,Maricopa,Phoenix,4013.0
33.360605,-111.769304,0.0,RESIDENTIAL,SUBURBAN,525 N LINDSEY RD-GILBERT STATION,,Arizona,Maricopa,Gilbert,4013.0
33.474486,-112.19293,0.0,RESIDENTIAL,SUBURBAN,6180 W ENCANTO BLVD-MARYVALE STATION,,Arizona,Maricopa,Phoenix,4013.0
33.417821999999994,-112.104872,0.0,INDUSTRIAL,SUBURBAN,3045 S 22ND AVE-SALT RIVER SERVICE CNTR,,Arizona,Maricopa,Phoenix,4013.0
33.301716,-111.892918,0.0,INDUSTRIAL,SUBURBAN,163 S PRICE RD-WEST CHANDLER STATION,,Arizona,Maricopa,Chandler,4013.0
33.46093,-112.11748,325.0,RESIDENTIAL,SUBURBAN,1128 N.  27TH AVE-GREENWOOD STATION,85009.0,Arizona,Maricopa,Phoenix,4013.0
33.430602,-111.823752,382.0,RESIDENTIAL,SUBURBAN,"N MESA DR & E 8TH ST, MESA",,Arizona,Maricopa,Mesa,4013.0
33.481988,-111.9432,385.0,RESIDENTIAL,SUBURBAN,"6402 E THOMAS RD, SCOTTSDALE",,Arizona,Maricopa,Scottsdale,4013.0
33.40314,-112.07526,326.0,RESIDENTIAL,URBAN AND CENTER CITY,"33 W TAMARISK AVE, PHOENIX",85041.0,Arizona,Maricopa,Phoenix,4013.0
33.29896,-111.88426,366.0,RESIDENTIAL,SUBURBAN,"275 S ELLIS, CHANDLER",85224.0,Arizona,Maricopa,Chandler,4013.0
33.411229999999996,-111.93471,352.0,RESIDENTIAL,URBAN AND CENTER CITY,"1525 S COLLEGE AVE, TEMPE",85281.0,Arizona,Maricopa,Tempe,4013.0
33.30995,-111.72003,391.0,INDUSTRIAL,SUBURBAN,2207 SOUTH HIGLEY ROAD,85295.0,Arizona,Maricopa,Gilbert,4013.0
33.655,-112.3855,0.0,AGRICULTURAL,RURAL,18600 N. REEMS ROAD,,Arizona,Maricopa,Surprise,4013.0
33.821690000000004,-112.01726,587.0,RESIDENTIAL,RURAL,37019 N. LAVA LANE. CAVE CREEK AZ,85331.0,Arizona,Maricopa,Cave Creek,4013.0
33.40635,-112.14426,318.0,INDUSTRIAL,URBAN AND CENTER CITY,3940 WEST BROADWAY ROAD PHOENIX AZ,85043.0,Arizona,Maricopa,Phoenix,4013.0
33.63718,-112.34185,359.0,COMMERCIAL,SUBURBAN,16825 N. DYSART,85374.0,Arizona,Maricopa,Surprise,4013.0
33.36985,-112.62068,258.0,AGRICULTURAL,RURAL,26453 W. MC85,85326.0,Arizona,Maricopa,Buckeye,4013.0
33.66628,-112.31042,359.0,COMMERCIAL,SUBURBAN,20010 N COYOTE LAKES PKWY,85373.0,Arizona,Maricopa,Surprise,4013.0
33.4133,-112.02093,341.0,COMMERCIAL,URBAN AND CENTER CITY,3615 South 28th St,85040.0,Arizona,Maricopa,Phoenix,4013.0
33.68719,-112.29416,386.0,RESIDENTIAL,SUBURBAN,"10851 W Williams Rd, Sun City AZ",85373.0,Arizona,Maricopa,Not in a City,4013.0
33.684509999999996,-112.08634,449.0,COMMERCIAL,SUBURBAN,1030 West Deer Valley Road,85027.0,Arizona,Maricopa,Phoenix,4013.0
33.684490000000004,-112.08633,450.5,INDUSTRIAL,SUBURBAN,1030 W. Deer Valley Rd,85027.0,Arizona,Maricopa,Phoenix,4013.0
33.396229999999996,-111.96799,354.0,COMMERCIAL,URBAN AND CENTER CITY,"1919 W Fairmont Dr., Tempe, AZ",85282.0,Arizona,Maricopa,Tempe,4013.0
33.461729999999996,-112.12796000000002,326.0,RESIDENTIAL,URBAN AND CENTER CITY,3248 W. Moreland,85009.0,Arizona,Maricopa,Phoenix,4013.0
33.629207,-112.045149,487.0,RESIDENTIAL,SUBURBAN,"1602 E GREENWAY RD, PARADISE VALLEY",,Arizona,Maricopa,Paradise Valley,4013.0
33.608371999999996,-112.284047,352.0,RESIDENTIAL,SUBURBAN,"10401 THUNDERBIRD BLVD, SUN CITY",,Arizona,Maricopa,Sun City,4013.0
33.629246,-111.676928,435.23,AGRICULTURAL,SUBURBAN,"18791 Yuma Frank Road, Ft. McDowell, AZ",85264.0,Arizona,Maricopa,Fort McDowell,4013.0
33.44702,-112.072115,360.0,INDUSTRIAL,URBAN AND CENTER CITY,"FS-1ST & E JEFFERSON, PHOENIX",85004.0,Arizona,Maricopa,Phoenix,4013.0
33.489488,-111.923478,379.0,RESIDENTIAL,SUBURBAN,"315 E 2ND ST, SCOTTSDALE",,Arizona,Maricopa,Scottsdale,4013.0
33.314926,-112.163055,338.0,RESIDENTIAL,RURAL,"6443 KOMATKE LN, LAVEEN (VEE QUIVA CASINO - ST JOHNS)",,Arizona,Maricopa,Not in a City,4013.0
33.290229,-112.160597,326.0,RESIDENTIAL,RURAL,"4208 W. PECOS LAVEEN, AZ 85339 (GILA CROSSING NORTH ELEM SCH)",85339.0,Arizona,Maricopa,Not in a City,4013.0
33.488242,-111.855654,377.0,RESIDENTIAL,RURAL,10844 EAST OSBORN ROAD SCOTTSDALE AZ 85256,85256.0,Arizona,Maricopa,Scottsdale,4013.0
33.507992,-111.755334,394.0,DESERT,RURAL,"15115 BEELINE HIGHWAY, SCOTTSDALE, AZ 86256",85256.0,Arizona,Maricopa,Scottsdale,4013.0
33.474609,-111.805769,412.0,RESIDENTIAL,RURAL,"3250 NORTH STAPLEY DRIVE, MESA, AZ 85203",85203.0,Arizona,Maricopa,Mesa,4013.0
33.50761,-111.83318,412.0,RESIDENTIAL,RURAL,4815 NORTH CENTER STREET,,Arizona,Maricopa,Scottsdale,4013.0
33.508125,-111.83852,366.0,RESIDENTIAL,RURAL,"4827 NORTH COUNTRY CLUB DRIVE, SCOTTSDALE, AZ 85256",85256.0,Arizona,Maricopa,Scottsdale,4013.0
33.637013,-112.292401,358.0,RESIDENTIAL,SUBURBAN,"THUNDERBIRD & DEL WEBB BLVD, SUN CITY",85351.0,Arizona,Maricopa,Sun City,4013.0
33.383333,-112.372777,277.0,RESIDENTIAL,RURAL,15099 W. CASEY ABBOTT RD,85338.0,Arizona,Maricopa,Goodyear (Litchfield),4013.0
33.4349,-112.093,325.0,RESIDENTIAL,URBAN AND CENTER CITY,1310 S. 15TH AVENUE,85007.0,Arizona,Maricopa,Phoenix,4013.0
33.982800000000005,-111.79871,1582.0,FOREST,RURAL,SEVEN SPRINGS RD-FAA RADAR STN-TONTO NF,199.0,Arizona,Maricopa,Not in a City,4013.0
33.68125,-112.205764,0.0,RESIDENTIAL,SUBURBAN,6801 W DEER VALLEY RD-ARROWHEAD STATION,,Arizona,Maricopa,Peoria,4013.0
33.970308,-112.730733,0.0,COMMERCIAL,SUBURBAN,"TENGER ST & HIWAY 93,WICKENBURG,AZ",,Arizona,Maricopa,Wickenburg,4013.0
33.905278,-111.41,2173.0,FOREST,RURAL,MT ORD-TONTO NF,85541.0,Arizona,Maricopa,Mount Ord,4013.0
33.54558,-111.60972,436.0,DESERT,RURAL,USERY PASS RD/BUSH HWY,85264.0,Arizona,Maricopa,Blue Point (District),4013.0
33.61092,-111.72534,505.0,RESIDENTIAL,SUBURBAN,"16426 E PALISADES BLVD,FOUNTAIN HILLS,AZ",85268.0,Arizona,Maricopa,Fountain Hills,4013.0
33.71881,-111.67183,478.0,RESIDENTIAL,SUBURBAN,"25608 N FOREST RD.,RIO VERDE,AZ",85263.0,Arizona,Maricopa,Rio Verde,4013.0
33.674492,-111.150401,0.0,RESIDENTIAL,RURAL,"HWY 188,ROOSEVELT LAKE,AZ",,Arizona,Maricopa,Roosevelt,4013.0
33.870034999999994,-112.287662,1600.0,DESERT,RURAL,"41402 N 87TH AVE,LAKE PLEASANT",,Arizona,Maricopa,Lake Pleasant,4013.0
33.426500000000004,-112.11821,317.0,COMMERCIAL,URBAN AND CENTER CITY,2702 RC ESTERBROOKS BLVD,85009.0,Arizona,Maricopa,Phoenix,4013.0
33.391659999999995,-111.926388,361.0,COMMERCIAL,SUBURBAN,3340 S RURAL RD,85282.0,Arizona,Maricopa,Tempe,4013.0
33.476608,-112.108597,338.0,RESIDENTIAL,URBAN AND CENTER CITY,2602 N 23RD AVE,,Arizona,Maricopa,Phoenix,4013.0
33.476110999999996,-112.199722,330.0,RESIDENTIAL,SUBURBAN,6501 W VIRGINIA AVE,85035.0,Arizona,Maricopa,Phoenix,4013.0
33.348851,-112.831103,265.0,INDUSTRIAL,RURAL,36248 W. ELLIOTT RD. PALO VERDE GEN STA,,Arizona,Maricopa,Palo Verde,4013.0
33.488889,-111.8625,0.0,AGRICULTURAL,SUBURBAN,"10005 E OSBORN RD,SCOTTSDALE",,Arizona,Maricopa,Scottsdale,4013.0
33.466667,-111.9625,0.0,RESIDENTIAL,SUBURBAN,"2035 N 52ND ST, PHOENIX",,Arizona,Maricopa,Phoenix,4013.0
33.481944,-112.115278,0.0,INDUSTRIAL,URBAN AND CENTER CITY,2600 NW GRAND AVENUE,,Arizona,Maricopa,Phoenix,4013.0
33.503833,-112.095767,346.0,RESIDENTIAL,URBAN AND CENTER CITY,4530 N 17TH AVENUE,85015.0,Arizona,Maricopa,Phoenix,4013.0
33.455276999999995,-111.996111,356.0,RESIDENTIAL,SUBURBAN,"600 N 40TH ST & FILLMORE ST,PHOENIX",85008.0,Arizona,Maricopa,Phoenix,4013.0
35.187222,-114.064167,1013.0,COMMERCIAL,URBAN AND CENTER CITY,"305 W BEALE ST, KINGMAN",,Arizona,Mohave,Kingman,4015.0
35.186111,-114.564444,206.0,INDUSTRIAL,RURAL,US BR-DAVIS DAM,,Arizona,Mohave,Davis Dam,4015.0
35.21138900000001,-114.566667,192.0,UNKNOWN,RURAL,"LAKE MOHAVE RESORT, BULLHEAD CITY",,Arizona,Mohave,Bullhead City,4015.0
35.085,-114.559444,168.0,UNKNOWN,RURAL,"WARDS PLUMBING SERVICE, (RIVERIA)",,Arizona,Mohave,Riviera,4015.0
36.898056,-112.733889,1487.0,UNKNOWN,RURAL,MOCCASIN,,Arizona,Mohave,Moccasin,4015.0
34.48185,-114.33659,148.0,COMMERCIAL,URBAN AND CENTER CITY,"MESQUITE & CIVIC, LAKE HAVASU CITY",,Arizona,Mohave,Lake Havasu City,4015.0
35.371111,-114.153056,1310.0,INDUSTRIAL,RURAL,"DUVAL COMPANY, CHLORIDE",,Arizona,Mohave,Chloride,4015.0
34.86,-114.598333,144.0,COMMERCIAL,RURAL,"BERMUDA WATER CO. BERMUDA CITY, ARIZONA",,Arizona,Mohave,Not in a city,4015.0
35.540017,-113.410782,50.0,RESIDENTIAL,RURAL,DIAMOND CREEK ROAD & U S ROUTE 66,86434.0,Arizona,Mohave,Peach Springs,4015.0
35.2,-114.566667,213.0,UNKNOWN,UNKNOWN,DAVIS DAM,,Arizona,Mohave,Davis Dam,4015.0
35.153887999999995,-114.566111,156.0,COMMERCIAL,URBAN AND CENTER CITY,BULLHEAD CITY 990 HWY 95,86429.0,Arizona,Mohave,Bullhead City,4015.0
35.103611,-114.602222,183.0,COMMERCIAL,URBAN AND CENTER CITY,1285 ALONAS WAY BULLHEAD CITY,86442.0,Arizona,Mohave,Bullhead City,4015.0
35.588726,-113.489025,1464.0,COMMERCIAL,RURAL,Grand Canyon west,86434.0,Arizona,Mohave,Not in a City,4015.0
34.55199,-113.372362,305.0,DESERT,RURAL,East of Big Sandy wash,86406.0,Arizona,Mohave,Not in a City,4015.0
36.019302,-114.069205,902.0,FOREST,RURAL,Meadview,86401.0,Arizona,Mohave,Not in a City,4015.0
34.939721999999996,-110.125278,1609.0,UNKNOWN,UNKNOWN,ARIZ HWY DEPT YARD US 66-3 M E HOLBROOK,,Arizona,Navajo,Holbrook,4017.0
34.959167,-110.331944,1531.0,INDUSTRIAL,SUBURBAN,359 N WESTOVER ST JOSEPH CITY,,Arizona,Navajo,Joseph City,4017.0
35.924167,-110.655278,1920.0,UNKNOWN,RURAL,BACOBI,,Arizona,Navajo,Bacobi,4017.0
34.924721999999996,-110.264167,1539.0,UNKNOWN,UNKNOWN,"BOYCE HUNTS' RES, HOLBROOK",,Arizona,Navajo,Holbrook,4017.0
34.252500000000005,-110.036388,1924.0,COMMERCIAL,URBAN AND CENTER CITY,"CITY HALL-DEUCE OF CLUBS AVE, SHOW LOW",85901.0,Arizona,Navajo,Show Low,4017.0
34.82251,-109.89249,1712.0,DESERT,RURAL,"PET FOR NAT PARK, NEAR OLD SW ENTERANCE ON OLD ROUTE 180",86025.0,Arizona,Navajo,Not in a City,4017.0
35.021111,-110.716111,1487.0,UNKNOWN,RURAL,"AIRPORT, WINSLOW",,Arizona,Navajo,Winslow,4017.0
33.85815,-109.97029,1599.0,RESIDENTIAL,RURAL,612 South Chief Avenue,85901.0,Arizona,Navajo,Whiteriver,4017.0
32.382036,-112.857453,515.0,INDUSTRIAL,SUBURBAN,"AZ HWY DEPT YARD-WELL RD, AJO",85321.0,Arizona,Pima,Ajo,4019.0
32.222058000000004,-110.974681,756.0,COMMERCIAL,URBAN AND CENTER CITY,"190 W PENNINGTON, TUCSON",85701.0,Arizona,Pima,Tucson,4019.0
31.95,-112.801,505.0,DESERT,RURAL,"VISITORS CENTER, ORGAN PIPE CACTUS NM",14.0,Arizona,Pima,Organ Pipe Cactus National Monument,4019.0
32.370664999999995,-111.168193,632.0,AGRICULTURAL,RURAL,8012 AVRA VALLEY RD (RILLITO),85743.0,Arizona,Pima,Picture Rocks,4019.0
31.87564,-110.993703,885.0,COMMERCIAL,SUBURBAN,"245 W ESPERANZA, GREEN VALLEY",,Arizona,Pima,Green Valley,4019.0
32.004707,-110.792593,937.0,,RURAL,"22000 S HOUGHTON RD, CORONA DE TUCSON",85641.0,Arizona,Pima,Corona de Tucson,4019.0
32.401219999999995,-111.126525,636.0,AGRICULTURAL,RURAL,"RILLITO,",85742.0,Arizona,Pima,Marana,4019.0
32.420663999999995,-111.18263799999998,618.0,AGRICULTURAL,RURAL,RILLITO,85653.0,Arizona,Pima,Marana,4019.0
32.322661,-111.038389,681.0,RESIDENTIAL,SUBURBAN,"3401 W ORANGE GROVE RD, TUCSON",85741.0,Arizona,Pima,Tucson,4019.0
32.090357,-110.961758,792.0,RESIDENTIAL,RURAL,"8100 S NOGALES HWY, TUCSON",,Arizona,Pima,Tucson,4019.0
32.175077,-110.742306,957.0,RESIDENTIAL,RURAL,"SAGUARO NM, HEADQUARTERS AREA",,Arizona,Pima,Saguaro National Monument,4019.0
32.233409,-110.753417,790.0,UNKNOWN,UNKNOWN,"1721 N TANQUE VERDE LOOP RD, TUCSON",,Arizona,Pima,Tucson,4019.0
